[
    {
        "name": "Saurimo, AO",
        "lat": -9.66078,
        "lng": 20.39155,
        "pop": 393000
    },
    {
        "name": "Lucapa, AO",
        "lat": -8.41915,
        "lng": 20.74466,
        "pop": 110000
    },
    {
        "name": "Dundo, AO",
        "lat": -7.36643,
        "lng": 20.81557,
        "pop": 177604
    },
    {
        "name": "Chitato, AO",
        "lat": -7.3,
        "lng": 20.73333,
        "pop": 246880
    },
    {
        "name": "U\u00edge, AO",
        "lat": -7.60874,
        "lng": 15.06131,
        "pop": 322531
    },
    {
        "name": "Soyo, AO",
        "lat": -6.1349,
        "lng": 12.36894,
        "pop": 200920
    },
    {
        "name": "N'dalatando, AO",
        "lat": -9.29782,
        "lng": 14.91162,
        "pop": 161584
    },
    {
        "name": "Mbanza Kongo, AO",
        "lat": -6.26667,
        "lng": 14.23833,
        "pop": 148000
    },
    {
        "name": "Malanje, AO",
        "lat": -9.54015,
        "lng": 16.34096,
        "pop": 455000
    },
    {
        "name": "Maianga, AO",
        "lat": -8.84693,
        "lng": 13.23698,
        "pop": 319000
    },
    {
        "name": "Luanda, AO",
        "lat": -8.83682,
        "lng": 13.23432,
        "pop": 2776168
    },
    {
        "name": "Cabinda, AO",
        "lat": -5.56198,
        "lng": 12.19476,
        "pop": 550000
    },
    {
        "name": "Cazenga, AO",
        "lat": -8.83796,
        "lng": 13.28399,
        "pop": 424528
    },
    {
        "name": "Talatona, AO",
        "lat": -8.91783,
        "lng": 13.18562,
        "pop": 500000
    },
    {
        "name": "Sumbe, AO",
        "lat": -11.20605,
        "lng": 13.84371,
        "pop": 205832
    },
    {
        "name": "Ondjiva, AO",
        "lat": -17.06667,
        "lng": 15.73333,
        "pop": 121537
    },
    {
        "name": "Mossamedes, AO",
        "lat": -15.19611,
        "lng": 12.15222,
        "pop": 255000
    },
    {
        "name": "Menongue, AO",
        "lat": -14.6585,
        "lng": 17.69099,
        "pop": 251178
    },
    {
        "name": "Luena, AO",
        "lat": -11.78333,
        "lng": 19.91667,
        "pop": 273675
    },
    {
        "name": "Lubango, AO",
        "lat": -14.91717,
        "lng": 13.4925,
        "pop": 600751
    },
    {
        "name": "Lobito, AO",
        "lat": -12.3644,
        "lng": 13.53601,
        "pop": 357950
    },
    {
        "name": "Cu\u00edto, AO",
        "lat": -12.38333,
        "lng": 16.93333,
        "pop": 355423
    },
    {
        "name": "Huambo, AO",
        "lat": -12.77611,
        "lng": 15.73917,
        "pop": 595304
    },
    {
        "name": "Gabela, AO",
        "lat": -10.85147,
        "lng": 14.37993,
        "pop": 116903
    },
    {
        "name": "Ca\u00e1la, AO",
        "lat": -12.8525,
        "lng": 15.56056,
        "pop": 130000
    },
    {
        "name": "Benguela, AO",
        "lat": -12.57674,
        "lng": 13.40268,
        "pop": 555124
    },
    {
        "name": "Rangel, AO",
        "lat": -8.82644,
        "lng": 13.26285,
        "pop": 261000
    },
    {
        "name": "Sambizanga, AO",
        "lat": -8.78883,
        "lng": 13.27506,
        "pop": 244000
    },
    {
        "name": "Saaba, BF",
        "lat": 12.37136,
        "lng": -1.41468,
        "pop": 136011
    },
    {
        "name": "Ouahigouya, BF",
        "lat": 13.5769,
        "lng": -2.41786,
        "pop": 124587
    },
    {
        "name": "Ouagadougou, BF",
        "lat": 12.36566,
        "lng": -1.53388,
        "pop": 2415266
    },
    {
        "name": "Koudougou, BF",
        "lat": 12.25188,
        "lng": -2.36694,
        "pop": 160239
    },
    {
        "name": "Kaya, BF",
        "lat": 13.0883,
        "lng": -1.08368,
        "pop": 121970
    },
    {
        "name": "Bobo-Dioulasso, BF",
        "lat": 11.18064,
        "lng": -4.29489,
        "pop": 904920
    },
    {
        "name": "Banfora, BF",
        "lat": 10.64064,
        "lng": -4.75285,
        "pop": 117452
    },
    {
        "name": "Bujumbura, BI",
        "lat": -3.38193,
        "lng": 29.36142,
        "pop": 769317
    },
    {
        "name": "Porto-Novo, BJ",
        "lat": 6.49646,
        "lng": 2.60359,
        "pop": 264320
    },
    {
        "name": "Parakou, BJ",
        "lat": 9.33716,
        "lng": 2.63031,
        "pop": 255478
    },
    {
        "name": "Godom\u00e8, BJ",
        "lat": 6.38948,
        "lng": 2.34581,
        "pop": 253262
    },
    {
        "name": "Cotonou, BJ",
        "lat": 6.36536,
        "lng": 2.41833,
        "pop": 679012
    },
    {
        "name": "Abomey-Calavi, BJ",
        "lat": 6.44852,
        "lng": 2.35566,
        "pop": 385755
    },
    {
        "name": "Abomey, BJ",
        "lat": 7.18286,
        "lng": 1.99119,
        "pop": 117824
    },
    {
        "name": "Gaborone, BW",
        "lat": -24.65451,
        "lng": 25.90859,
        "pop": 246325
    },
    {
        "name": "Francistown, BW",
        "lat": -21.17,
        "lng": 27.50778,
        "pop": 103417
    },
    {
        "name": "Uvira, CD",
        "lat": -3.39534,
        "lng": 29.13779,
        "pop": 407092
    },
    {
        "name": "Tshikapa, CD",
        "lat": -6.41621,
        "lng": 20.79995,
        "pop": 634529
    },
    {
        "name": "Mwene-Ditu, CD",
        "lat": -7.00906,
        "lng": 23.45278,
        "pop": 189177
    },
    {
        "name": "Mbuji-Mayi, CD",
        "lat": -6.13603,
        "lng": 23.58979,
        "pop": 2101332
    },
    {
        "name": "Lisala, CD",
        "lat": 2.15127,
        "lng": 21.51672,
        "pop": 117464
    },
    {
        "name": "Kisangani, CD",
        "lat": 0.51528,
        "lng": 25.19099,
        "pop": 1181788
    },
    {
        "name": "Kindu, CD",
        "lat": -2.94373,
        "lng": 25.92237,
        "pop": 234651
    },
    {
        "name": "Kananga, CD",
        "lat": -5.89624,
        "lng": 22.41659,
        "pop": 1247168
    },
    {
        "name": "Kamina, CD",
        "lat": -8.73508,
        "lng": 24.99798,
        "pop": 200184
    },
    {
        "name": "Kalemie, CD",
        "lat": -5.94749,
        "lng": 29.19471,
        "pop": 160961
    },
    {
        "name": "Kabinda, CD",
        "lat": -6.13791,
        "lng": 24.48179,
        "pop": 219396
    },
    {
        "name": "Isiro, CD",
        "lat": 2.77391,
        "lng": 27.61603,
        "pop": 255409
    },
    {
        "name": "Ilebo, CD",
        "lat": -4.33111,
        "lng": 20.58638,
        "pop": 117245
    },
    {
        "name": "Goma, CD",
        "lat": -1.67409,
        "lng": 29.22845,
        "pop": 432587
    },
    {
        "name": "Gandajika, CD",
        "lat": -6.74504,
        "lng": 23.95328,
        "pop": 208051
    },
    {
        "name": "Butembo, CD",
        "lat": 0.14164,
        "lng": 29.29117,
        "pop": 286242
    },
    {
        "name": "Bunia, CD",
        "lat": 1.55941,
        "lng": 30.25224,
        "pop": 399282
    },
    {
        "name": "Bumba, CD",
        "lat": 2.18771,
        "lng": 22.46827,
        "pop": 154586
    },
    {
        "name": "Bukavu, CD",
        "lat": -2.49077,
        "lng": 28.84281,
        "pop": 816811
    },
    {
        "name": "Bukama, CD",
        "lat": -9.20443,
        "lng": 25.85475,
        "pop": 105530
    },
    {
        "name": "Beni, CD",
        "lat": 0.49113,
        "lng": 29.47306,
        "pop": 140731
    },
    {
        "name": "Bakwa, CD",
        "lat": 4.1263,
        "lng": 27.39527,
        "pop": 100575
    },
    {
        "name": "Tshilenge, CD",
        "lat": -10.96667,
        "lng": 22.9,
        "pop": 116073
    },
    {
        "name": "Lubumbashi, CD",
        "lat": -11.66089,
        "lng": 27.47938,
        "pop": 2221925
    },
    {
        "name": "Likasi, CD",
        "lat": -10.98303,
        "lng": 26.7384,
        "pop": 635768
    },
    {
        "name": "Kolwezi, CD",
        "lat": -10.71484,
        "lng": 25.46674,
        "pop": 790248
    },
    {
        "name": "Kipushi, CD",
        "lat": -11.76097,
        "lng": 27.25135,
        "pop": 169635
    },
    {
        "name": "Moanda, CD",
        "lat": -5.92753,
        "lng": 12.37148,
        "pop": 128804
    },
    {
        "name": "Mbanza-Ngungu, CD",
        "lat": -5.25837,
        "lng": 14.85838,
        "pop": 142773
    },
    {
        "name": "Mbandaka, CD",
        "lat": 0.04865,
        "lng": 18.26034,
        "pop": 455011
    },
    {
        "name": "Matadi, CD",
        "lat": -5.83861,
        "lng": 13.46306,
        "pop": 425662
    },
    {
        "name": "Kinshasa, CD",
        "lat": -4.32758,
        "lng": 15.31357,
        "pop": 16000000
    },
    {
        "name": "Kikwit, CD",
        "lat": -5.04098,
        "lng": 18.81619,
        "pop": 509367
    },
    {
        "name": "Inkisi, CD",
        "lat": -5.13122,
        "lng": 15.0541,
        "pop": 115317
    },
    {
        "name": "Gemena, CD",
        "lat": 3.25651,
        "lng": 19.77234,
        "pop": 197159
    },
    {
        "name": "Boma, CD",
        "lat": -5.85098,
        "lng": 13.05364,
        "pop": 297009
    },
    {
        "name": "Bandundu Province, CD",
        "lat": -3.31687,
        "lng": 17.38063,
        "pop": 202904
    },
    {
        "name": "Masina, CD",
        "lat": -4.38361,
        "lng": 15.39139,
        "pop": 485167
    },
    {
        "name": "Mwene, CD",
        "lat": -9.81697,
        "lng": 22.87023,
        "pop": 295683
    },
    {
        "name": "Carnot, CF",
        "lat": 4.94273,
        "lng": 15.87735,
        "pop": 129032
    },
    {
        "name": "Bimbo, CF",
        "lat": 4.25671,
        "lng": 18.41583,
        "pop": 348802
    },
    {
        "name": "Berb\u00e9rati, CF",
        "lat": 4.26116,
        "lng": 15.79216,
        "pop": 103713
    },
    {
        "name": "B\u00e9goua, CF",
        "lat": 4.45437,
        "lng": 18.53475,
        "pop": 264067
    },
    {
        "name": "Bangui, CF",
        "lat": 4.36122,
        "lng": 18.55496,
        "pop": 812407
    },
    {
        "name": "Pointe-Noire, CG",
        "lat": -4.77609,
        "lng": 11.86352,
        "pop": 1032000
    },
    {
        "name": "Dolisie, CG",
        "lat": -4.19834,
        "lng": 12.66664,
        "pop": 121000
    },
    {
        "name": "Brazzaville, CG",
        "lat": -4.26613,
        "lng": 15.28318,
        "pop": 1982000
    },
    {
        "name": "Nkayi, CG",
        "lat": -4.18396,
        "lng": 13.2859,
        "pop": 103000
    },
    {
        "name": "Yamoussoukro, CI",
        "lat": 6.82055,
        "lng": -5.27674,
        "pop": 275686
    },
    {
        "name": "Sinfra, CI",
        "lat": 6.62103,
        "lng": -5.91144,
        "pop": 245226
    },
    {
        "name": "San-P\u00e9dro, CI",
        "lat": 4.74851,
        "lng": -6.6363,
        "pop": 390654
    },
    {
        "name": "Man, CI",
        "lat": 7.41251,
        "lng": -7.55383,
        "pop": 241969
    },
    {
        "name": "Koumassi, CI",
        "lat": 5.29716,
        "lng": -3.96753,
        "pop": 412282
    },
    {
        "name": "Korhogo, CI",
        "lat": 9.45803,
        "lng": -5.62961,
        "pop": 440926
    },
    {
        "name": "Gagnoa, CI",
        "lat": 6.13193,
        "lng": -5.9506,
        "pop": 277044
    },
    {
        "name": "Duekou\u00e9, CI",
        "lat": 6.74202,
        "lng": -7.34918,
        "pop": 117023
    },
    {
        "name": "Divo, CI",
        "lat": 5.83739,
        "lng": -5.35723,
        "pop": 136627
    },
    {
        "name": "Daoukro, CI",
        "lat": 7.0591,
        "lng": -3.9631,
        "pop": 101136
    },
    {
        "name": "Daloa, CI",
        "lat": 6.87735,
        "lng": -6.45022,
        "pop": 421871
    },
    {
        "name": "Dabou, CI",
        "lat": 5.32556,
        "lng": -4.37685,
        "pop": 138083
    },
    {
        "name": "Bouak\u00e9, CI",
        "lat": 7.69385,
        "lng": -5.03031,
        "pop": 832371
    },
    {
        "name": "Bouafl\u00e9, CI",
        "lat": 6.99041,
        "lng": -5.7442,
        "pop": 104209
    },
    {
        "name": "Bondoukou, CI",
        "lat": 8.0402,
        "lng": -2.80003,
        "pop": 141568
    },
    {
        "name": "Anyama, CI",
        "lat": 5.49462,
        "lng": -4.05183,
        "pop": 133905
    },
    {
        "name": "Abobo, CI",
        "lat": 5.41613,
        "lng": -4.0159,
        "pop": 1340083
    },
    {
        "name": "Abidjan, CI",
        "lat": 5.35444,
        "lng": -4.00167,
        "pop": 6321017
    },
    {
        "name": "Abengourou, CI",
        "lat": 6.72972,
        "lng": -3.49639,
        "pop": 130810
    },
    {
        "name": "Marcory, CI",
        "lat": 5.31198,
        "lng": -3.99363,
        "pop": 214061
    },
    {
        "name": "S\u00e9gu\u00e9la, CI",
        "lat": 7.96111,
        "lng": -6.67306,
        "pop": 103980
    },
    {
        "name": "Soubr\u00e9, CI",
        "lat": 5.78377,
        "lng": -6.59388,
        "pop": 131181
    },
    {
        "name": "Bonon, CI",
        "lat": 6.9268,
        "lng": -6.0489,
        "pop": 119938
    },
    {
        "name": "Yaound\u00e9, CM",
        "lat": 3.86667,
        "lng": 11.51667,
        "pop": 1299369
    },
    {
        "name": "Nkongsamba, CM",
        "lat": 4.9547,
        "lng": 9.9404,
        "pop": 162309
    },
    {
        "name": "Ngaound\u00e9r\u00e9, CM",
        "lat": 7.32765,
        "lng": 13.58472,
        "pop": 238196
    },
    {
        "name": "Maroua, CM",
        "lat": 10.59095,
        "lng": 14.31593,
        "pop": 314122
    },
    {
        "name": "Limbe, CM",
        "lat": 4.02356,
        "lng": 9.20607,
        "pop": 131381
    },
    {
        "name": "Kumbo, CM",
        "lat": 6.2,
        "lng": 10.66667,
        "pop": 125124
    },
    {
        "name": "Kumba, CM",
        "lat": 4.6363,
        "lng": 9.4469,
        "pop": 225046
    },
    {
        "name": "Kouss\u00e9ri, CM",
        "lat": 12.07689,
        "lng": 15.03063,
        "pop": 139024
    },
    {
        "name": "Foumban, CM",
        "lat": 5.72662,
        "lng": 10.89865,
        "pop": 130287
    },
    {
        "name": "Ed\u00e9a, CM",
        "lat": 3.8,
        "lng": 10.13333,
        "pop": 103861
    },
    {
        "name": "\u00c9bolowa, CM",
        "lat": 2.9,
        "lng": 11.15,
        "pop": 101363
    },
    {
        "name": "Douala, CM",
        "lat": 4.04827,
        "lng": 9.70428,
        "pop": 1338082
    },
    {
        "name": "Buea, CM",
        "lat": 4.15342,
        "lng": 9.24231,
        "pop": 140533
    },
    {
        "name": "Bertoua, CM",
        "lat": 4.57728,
        "lng": 13.68459,
        "pop": 137993
    },
    {
        "name": "Bamenda, CM",
        "lat": 5.9597,
        "lng": 10.14597,
        "pop": 420445
    },
    {
        "name": "Bafoussam, CM",
        "lat": 5.47775,
        "lng": 10.41759,
        "pop": 373268
    },
    {
        "name": "Praia, CV",
        "lat": 14.93152,
        "lng": -23.51254,
        "pop": 137868
    },
    {
        "name": "Djibouti, DJ",
        "lat": 11.58901,
        "lng": 43.14503,
        "pop": 626512
    },
    {
        "name": "Touggourt, DZ",
        "lat": 33.11083,
        "lng": 6.07,
        "pop": 143270
    },
    {
        "name": "Tlemcen, DZ",
        "lat": 34.87833,
        "lng": -1.315,
        "pop": 173531
    },
    {
        "name": "Tizi Ouzou, DZ",
        "lat": 36.71182,
        "lng": 4.04591,
        "pop": 104312
    },
    {
        "name": "Tiaret, DZ",
        "lat": 35.37103,
        "lng": 1.31699,
        "pop": 178915
    },
    {
        "name": "T\u00e9bessa, DZ",
        "lat": 35.40417,
        "lng": 8.12417,
        "pop": 194461
    },
    {
        "name": "Souk Ahras, DZ",
        "lat": 36.28639,
        "lng": 7.95111,
        "pop": 153479
    },
    {
        "name": "Skikda, DZ",
        "lat": 36.87617,
        "lng": 6.90921,
        "pop": 182903
    },
    {
        "name": "Sidi Bel Abbes, DZ",
        "lat": 35.18994,
        "lng": -0.63085,
        "pop": 210146
    },
    {
        "name": "S\u00e9tif, DZ",
        "lat": 36.19112,
        "lng": 5.41373,
        "pop": 252127
    },
    {
        "name": "Sa\u00efda, DZ",
        "lat": 34.83033,
        "lng": 0.15171,
        "pop": 142497
    },
    {
        "name": "Rouiba, DZ",
        "lat": 36.73829,
        "lng": 3.28079,
        "pop": 117558
    },
    {
        "name": "Relizane, DZ",
        "lat": 35.73734,
        "lng": 0.55599,
        "pop": 123255
    },
    {
        "name": "Ouargla, DZ",
        "lat": 31.94932,
        "lng": 5.32502,
        "pop": 169928
    },
    {
        "name": "Oran, DZ",
        "lat": 35.69906,
        "lng": -0.63588,
        "pop": 803329
    },
    {
        "name": "M'Sila, DZ",
        "lat": 35.70889,
        "lng": 4.53722,
        "pop": 132975
    },
    {
        "name": "Mostaganem, DZ",
        "lat": 35.93115,
        "lng": 0.08918,
        "pop": 162885
    },
    {
        "name": "M\u00e9d\u00e9a, DZ",
        "lat": 36.26417,
        "lng": 2.75393,
        "pop": 145441
    },
    {
        "name": "Mascara, DZ",
        "lat": 35.39664,
        "lng": 0.14027,
        "pop": 108629
    },
    {
        "name": "Laghouat, DZ",
        "lat": 33.8,
        "lng": 2.86514,
        "pop": 134372
    },
    {
        "name": "Khenchela, DZ",
        "lat": 35.43583,
        "lng": 7.14333,
        "pop": 114472
    },
    {
        "name": "Jijel, DZ",
        "lat": 36.821,
        "lng": 5.76352,
        "pop": 131513
    },
    {
        "name": "Guelma, DZ",
        "lat": 36.46214,
        "lng": 7.42608,
        "pop": 120004
    },
    {
        "name": "Gharda\u00efa, DZ",
        "lat": 32.49094,
        "lng": 3.67347,
        "pop": 142913
    },
    {
        "name": "El Oued, DZ",
        "lat": 33.35608,
        "lng": 6.86319,
        "pop": 186525
    },
    {
        "name": "El Eulma, DZ",
        "lat": 36.15281,
        "lng": 5.69016,
        "pop": 145380
    },
    {
        "name": "Chlef, DZ",
        "lat": 36.16525,
        "lng": 1.33452,
        "pop": 178616
    },
    {
        "name": "El Achir, DZ",
        "lat": 36.06386,
        "lng": 4.62744,
        "pop": 158333
    },
    {
        "name": "Djelfa, DZ",
        "lat": 34.67279,
        "lng": 3.263,
        "pop": 265833
    },
    {
        "name": "Constantine, DZ",
        "lat": 36.365,
        "lng": 6.61472,
        "pop": 448028
    },
    {
        "name": "Bou Sa\u00e2da, DZ",
        "lat": 35.20855,
        "lng": 4.17402,
        "pop": 111787
    },
    {
        "name": "Bordj el Kiffan, DZ",
        "lat": 36.74871,
        "lng": 3.19249,
        "pop": 123246
    },
    {
        "name": "Bordj Bou Arreridj, DZ",
        "lat": 36.07389,
        "lng": 4.76139,
        "pop": 158812
    },
    {
        "name": "Blida, DZ",
        "lat": 36.47004,
        "lng": 2.8277,
        "pop": 331779
    },
    {
        "name": "Biskra, DZ",
        "lat": 34.85038,
        "lng": 5.72805,
        "pop": 204661
    },
    {
        "name": "B\u00e9ja\u00efa, DZ",
        "lat": 36.75587,
        "lng": 5.08433,
        "pop": 176139
    },
    {
        "name": "B\u00e9char, DZ",
        "lat": 31.61667,
        "lng": -2.21667,
        "pop": 165241
    },
    {
        "name": "Batna, DZ",
        "lat": 35.55597,
        "lng": 6.17414,
        "pop": 289504
    },
    {
        "name": "Baraki, DZ",
        "lat": 36.66655,
        "lng": 3.09606,
        "pop": 105402
    },
    {
        "name": "Bab Ezzouar, DZ",
        "lat": 36.72615,
        "lng": 3.18291,
        "pop": 275630
    },
    {
        "name": "Annaba, DZ",
        "lat": 36.9,
        "lng": 7.76667,
        "pop": 342703
    },
    {
        "name": "Algiers, DZ",
        "lat": 36.73225,
        "lng": 3.08746,
        "pop": 2364230
    },
    {
        "name": "A\u00efn Be\u00efda, DZ",
        "lat": 35.79639,
        "lng": 7.39278,
        "pop": 116064
    },
    {
        "name": "Zefta, EG",
        "lat": 30.7142,
        "lng": 31.24425,
        "pop": 111700
    },
    {
        "name": "\u0162im\u0101, EG",
        "lat": 26.90843,
        "lng": 31.43469,
        "pop": 101130
    },
    {
        "name": "Tanta, EG",
        "lat": 30.78847,
        "lng": 31.00192,
        "pop": 576648
    },
    {
        "name": "\u0162alkh\u0101, EG",
        "lat": 31.0539,
        "lng": 31.37787,
        "pop": 112851
    },
    {
        "name": "\u0162ah\u0163\u0101, EG",
        "lat": 26.76866,
        "lng": 31.50198,
        "pop": 134314
    },
    {
        "name": "Sohag, EG",
        "lat": 26.55695,
        "lng": 31.69478,
        "pop": 266944
    },
    {
        "name": "Sinn\u016bris, EG",
        "lat": 29.41345,
        "lng": 30.86579,
        "pop": 133532
    },
    {
        "name": "Shubr\u0101 al Khaymah, EG",
        "lat": 30.12511,
        "lng": 31.25053,
        "pop": 1240289
    },
    {
        "name": "Shib\u012bn al Kawm, EG",
        "lat": 30.55258,
        "lng": 31.00904,
        "pop": 267945
    },
    {
        "name": "Sam\u0101l\u016b\u0163, EG",
        "lat": 28.31214,
        "lng": 30.71007,
        "pop": 142009
    },
    {
        "name": "Rosetta, EG",
        "lat": 31.39951,
        "lng": 30.41718,
        "pop": 301795
    },
    {
        "name": "Qina, EG",
        "lat": 26.16418,
        "lng": 32.72671,
        "pop": 252883
    },
    {
        "name": "Qalyub, EG",
        "lat": 30.17922,
        "lng": 31.2056,
        "pop": 156363
    },
    {
        "name": "M\u012bt Ghamr, EG",
        "lat": 30.71524,
        "lng": 31.2592,
        "pop": 153754
    },
    {
        "name": "Mun\u016bf, EG",
        "lat": 30.46597,
        "lng": 30.93199,
        "pop": 125707
    },
    {
        "name": "Mars\u00e1 Ma\u0163r\u016b\u1e29, EG",
        "lat": 31.3529,
        "lng": 27.23725,
        "pop": 176498
    },
    {
        "name": "Manfal\u016b\u0163, EG",
        "lat": 27.3126,
        "lng": 30.96987,
        "pop": 117925
    },
    {
        "name": "Mallaw\u012b, EG",
        "lat": 27.73264,
        "lng": 30.84129,
        "pop": 212628
    },
    {
        "name": "Magh\u0101ghah, EG",
        "lat": 28.64776,
        "lng": 30.841,
        "pop": 118223
    },
    {
        "name": "6th of October City, EG",
        "lat": 29.81667,
        "lng": 31.05,
        "pop": 368650
    },
    {
        "name": "Al \u2018\u0100shir min Rama\u1e11\u0101n, EG",
        "lat": 30.29636,
        "lng": 31.74633,
        "pop": 246148
    },
    {
        "name": "Kird\u0101sah, EG",
        "lat": 30.03103,
        "lng": 31.11109,
        "pop": 137588
    },
    {
        "name": "Kom Ombo, EG",
        "lat": 24.47669,
        "lng": 32.94626,
        "pop": 409311
    },
    {
        "name": "Kafr ash Shaykh, EG",
        "lat": 31.11174,
        "lng": 30.93991,
        "pop": 194569
    },
    {
        "name": "Kafr ad Daww\u0101r, EG",
        "lat": 31.13379,
        "lng": 30.12969,
        "pop": 128539
    },
    {
        "name": "Girga, EG",
        "lat": 26.33721,
        "lng": 31.89295,
        "pop": 151256
    },
    {
        "name": "Esna, EG",
        "lat": 25.29336,
        "lng": 32.55402,
        "pop": 462787
    },
    {
        "name": "Idk\u016b, EG",
        "lat": 31.3073,
        "lng": 30.2981,
        "pop": 177152
    },
    {
        "name": "\u1e28alw\u0101n, EG",
        "lat": 29.84144,
        "lng": 31.30084,
        "pop": 230000
    },
    {
        "name": "F\u0101q\u016bs, EG",
        "lat": 30.72816,
        "lng": 31.79697,
        "pop": 116945
    },
    {
        "name": "Damietta, EG",
        "lat": 31.41648,
        "lng": 31.81332,
        "pop": 305920
    },
    {
        "name": "Dis\u016bq, EG",
        "lat": 31.13259,
        "lng": 30.64784,
        "pop": 149291
    },
    {
        "name": "Dikirnis, EG",
        "lat": 31.08898,
        "lng": 31.59478,
        "pop": 101082
    },
    {
        "name": "Dayr\u016b\u0163, EG",
        "lat": 27.55642,
        "lng": 30.81057,
        "pop": 102570
    },
    {
        "name": "Damanhur, EG",
        "lat": 31.03408,
        "lng": 30.46823,
        "pop": 318207
    },
    {
        "name": "B\u016bsh, EG",
        "lat": 29.14816,
        "lng": 31.12733,
        "pop": 136441
    },
    {
        "name": "Port Said, EG",
        "lat": 31.26531,
        "lng": 32.3019,
        "pop": 780515
    },
    {
        "name": "Bilq\u0101s, EG",
        "lat": 31.21452,
        "lng": 31.35798,
        "pop": 137080
    },
    {
        "name": "Bilbeis, EG",
        "lat": 30.42039,
        "lng": 31.56223,
        "pop": 185237
    },
    {
        "name": "Ban\u012b Suwayf, EG",
        "lat": 29.07441,
        "lng": 31.09785,
        "pop": 273151
    },
    {
        "name": "Ban\u012b Maz\u0101r, EG",
        "lat": 28.49456,
        "lng": 30.80526,
        "pop": 115759
    },
    {
        "name": "Banh\u0101, EG",
        "lat": 30.45977,
        "lng": 31.1842,
        "pop": 182254
    },
    {
        "name": "Zagazig, EG",
        "lat": 30.58768,
        "lng": 31.502,
        "pop": 430445
    },
    {
        "name": "Assiut, EG",
        "lat": 27.18096,
        "lng": 31.18368,
        "pop": 528669
    },
    {
        "name": "Asw\u0101n, EG",
        "lat": 24.09082,
        "lng": 32.89942,
        "pop": 379774
    },
    {
        "name": "Suez, EG",
        "lat": 29.97371,
        "lng": 32.52627,
        "pop": 699541
    },
    {
        "name": "As Sinbill\u0101wayn, EG",
        "lat": 30.88251,
        "lng": 31.46275,
        "pop": 124020
    },
    {
        "name": "Ashm\u016bn, EG",
        "lat": 30.29735,
        "lng": 30.97641,
        "pop": 124483
    },
    {
        "name": "Luxor, EG",
        "lat": 25.69893,
        "lng": 32.6421,
        "pop": 422407
    },
    {
        "name": "Cairo, EG",
        "lat": 30.06263,
        "lng": 31.24967,
        "pop": 9606916
    },
    {
        "name": "Minya, EG",
        "lat": 28.09193,
        "lng": 30.75813,
        "pop": 283605
    },
    {
        "name": "Al Ma\u0163ar\u012byah, EG",
        "lat": 31.18287,
        "lng": 32.03108,
        "pop": 162045
    },
    {
        "name": "Al Manzalah, EG",
        "lat": 31.15823,
        "lng": 31.936,
        "pop": 127394
    },
    {
        "name": "Al Mansurah, EG",
        "lat": 31.03637,
        "lng": 31.38069,
        "pop": 621953
    },
    {
        "name": "Al Ma\u1e29allah al Kubr\u00e1, EG",
        "lat": 30.97063,
        "lng": 31.1669,
        "pop": 592573
    },
    {
        "name": "Al Khu\u015f\u016b\u015f, EG",
        "lat": 30.15293,
        "lng": 31.31501,
        "pop": 488904
    },
    {
        "name": "Giza, EG",
        "lat": 30.00944,
        "lng": 31.20861,
        "pop": 4367343
    },
    {
        "name": "Ismailia, EG",
        "lat": 30.60427,
        "lng": 32.27225,
        "pop": 429465
    },
    {
        "name": "Alexandria, EG",
        "lat": 31.20176,
        "lng": 29.91582,
        "pop": 5263542
    },
    {
        "name": "Al \u1e28aw\u0101mid\u012byah, EG",
        "lat": 29.9,
        "lng": 31.25,
        "pop": 155055
    },
    {
        "name": "Hurghada, EG",
        "lat": 27.25738,
        "lng": 33.81291,
        "pop": 207132
    },
    {
        "name": "Al Fayyum, EG",
        "lat": 29.30995,
        "lng": 30.8418,
        "pop": 519047
    },
    {
        "name": "Al Fashn, EG",
        "lat": 28.82306,
        "lng": 30.89903,
        "pop": 112999
    },
    {
        "name": "Ar\u012bsh, EG",
        "lat": 31.13159,
        "lng": 33.79844,
        "pop": 199243
    },
    {
        "name": "Akhm\u012bm, EG",
        "lat": 26.5622,
        "lng": 31.74566,
        "pop": 151430
    },
    {
        "name": "Ab\u016b T\u012bj, EG",
        "lat": 27.04514,
        "lng": 31.31845,
        "pop": 105418
    },
    {
        "name": "Ab\u016b Kab\u012br, EG",
        "lat": 30.72508,
        "lng": 31.67148,
        "pop": 154466
    },
    {
        "name": "Abn\u016bb, EG",
        "lat": 27.26881,
        "lng": 31.15232,
        "pop": 111785
    },
    {
        "name": "New Cairo, EG",
        "lat": 30.03,
        "lng": 31.47,
        "pop": 313139
    },
    {
        "name": "Al-'Ub\u016br, EG",
        "lat": 30.22886,
        "lng": 31.48149,
        "pop": 138987
    },
    {
        "name": "Laayoune, EH",
        "lat": 27.1418,
        "lng": -13.18797,
        "pop": 196331
    },
    {
        "name": "Dakhla, EH",
        "lat": 23.68477,
        "lng": -15.95798,
        "pop": 106277
    },
    {
        "name": "Asmara, ER",
        "lat": 15.33805,
        "lng": 38.93184,
        "pop": 563930
    },
    {
        "name": "Warder, ET",
        "lat": 6.97444,
        "lng": 45.34083,
        "pop": 450400
    },
    {
        "name": "Weldiya, ET",
        "lat": 11.8277,
        "lng": 39.59164,
        "pop": 104000
    },
    {
        "name": "Shashamane, ET",
        "lat": 7.2,
        "lng": 38.6,
        "pop": 208400
    },
    {
        "name": "Sebeta, ET",
        "lat": 8.91667,
        "lng": 38.61667,
        "pop": 102300
    },
    {
        "name": "Nek\u2019emt\u0113, ET",
        "lat": 9.08333,
        "lng": 36.55,
        "pop": 156000
    },
    {
        "name": "Nazr\u0113t, ET",
        "lat": 8.55,
        "lng": 39.26667,
        "pop": 456900
    },
    {
        "name": "Mek'ele, ET",
        "lat": 13.49667,
        "lng": 39.47528,
        "pop": 457900
    },
    {
        "name": "Kombolcha, ET",
        "lat": 11.08155,
        "lng": 39.74339,
        "pop": 132100
    },
    {
        "name": "Jimma, ET",
        "lat": 7.67344,
        "lng": 36.83441,
        "pop": 250900
    },
    {
        "name": "Jijiga, ET",
        "lat": 9.35,
        "lng": 42.8,
        "pop": 483000
    },
    {
        "name": "Inda Silas\u0113, ET",
        "lat": 14.10307,
        "lng": 38.28289,
        "pop": 100100
    },
    {
        "name": "Hosa\u2019ina, ET",
        "lat": 7.54978,
        "lng": 37.85374,
        "pop": 188200
    },
    {
        "name": "Harar, ET",
        "lat": 9.31387,
        "lng": 42.11815,
        "pop": 157000
    },
    {
        "name": "Gonder, ET",
        "lat": 12.6,
        "lng": 37.46667,
        "pop": 466000
    },
    {
        "name": "Dire Dawa, ET",
        "lat": 9.59306,
        "lng": 41.86611,
        "pop": 343000
    },
    {
        "name": "D\u012bla, ET",
        "lat": 6.41667,
        "lng": 38.31667,
        "pop": 158800
    },
    {
        "name": "Dessie, ET",
        "lat": 11.13333,
        "lng": 39.63333,
        "pop": 270400
    },
    {
        "name": "Bishoftu, ET",
        "lat": 8.75225,
        "lng": 38.97846,
        "pop": 207400
    },
    {
        "name": "Debre Tabor, ET",
        "lat": 11.85,
        "lng": 38.01667,
        "pop": 125300
    },
    {
        "name": "Debre Mark\u2019os, ET",
        "lat": 10.35,
        "lng": 37.73333,
        "pop": 140700
    },
    {
        "name": "Debre Birhan, ET",
        "lat": 9.67954,
        "lng": 39.53262,
        "pop": 146900
    },
    {
        "name": "Bahir Dar, ET",
        "lat": 11.59364,
        "lng": 37.39077,
        "pop": 350000
    },
    {
        "name": "Awasa, ET",
        "lat": 7.06205,
        "lng": 38.47635,
        "pop": 422200
    },
    {
        "name": "\u0100sela, ET",
        "lat": 7.95,
        "lng": 39.13333,
        "pop": 139500
    },
    {
        "name": "Arba Minch, ET",
        "lat": 6.03333,
        "lng": 37.55,
        "pop": 201000
    },
    {
        "name": "\u0100rab\u012b, ET",
        "lat": 9.96278,
        "lng": 42.49278,
        "pop": 148933
    },
    {
        "name": "Addis Ababa, ET",
        "lat": 9.02497,
        "lng": 38.74689,
        "pop": 3860000
    },
    {
        "name": "\u0100d\u012bgrat, ET",
        "lat": 14.277,
        "lng": 39.462,
        "pop": 121800
    },
    {
        "name": "Sodo, ET",
        "lat": 6.86,
        "lng": 37.76159,
        "pop": 204100
    },
    {
        "name": "Burayu, ET",
        "lat": 9.03528,
        "lng": 38.66083,
        "pop": 101400
    },
    {
        "name": "Port-Gentil, GA",
        "lat": -0.71933,
        "lng": 8.78151,
        "pop": 164018
    },
    {
        "name": "Libreville, GA",
        "lat": 0.39241,
        "lng": 9.45356,
        "pop": 846090
    },
    {
        "name": "Franceville, GA",
        "lat": -1.63333,
        "lng": 13.58357,
        "pop": 132895
    },
    {
        "name": "Twifu Praso, GH",
        "lat": 5.61411,
        "lng": -1.5502,
        "pop": 100851
    },
    {
        "name": "Tema, GH",
        "lat": 5.6698,
        "lng": -0.01657,
        "pop": 155782
    },
    {
        "name": "Tamale, GH",
        "lat": 9.40079,
        "lng": -0.8393,
        "pop": 464316
    },
    {
        "name": "Takoradi, GH",
        "lat": 4.89816,
        "lng": -1.76029,
        "pop": 389114
    },
    {
        "name": "Sekondi-Takoradi, GH",
        "lat": 4.92678,
        "lng": -1.75773,
        "pop": 138872
    },
    {
        "name": "Obuase, GH",
        "lat": 6.20228,
        "lng": -1.66796,
        "pop": 179604
    },
    {
        "name": "Medina Estates, GH",
        "lat": 5.6658,
        "lng": -0.16307,
        "pop": 101207
    },
    {
        "name": "Kumasi, GH",
        "lat": 6.68848,
        "lng": -1.62443,
        "pop": 2544530
    },
    {
        "name": "Koforidua, GH",
        "lat": 6.09408,
        "lng": -0.25913,
        "pop": 151255
    },
    {
        "name": "Ho, GH",
        "lat": 6.60084,
        "lng": 0.4713,
        "pop": 130701
    },
    {
        "name": "Cape Coast, GH",
        "lat": 5.10535,
        "lng": -1.2466,
        "pop": 212426
    },
    {
        "name": "Ashaiman, GH",
        "lat": 5.69951,
        "lng": -0.03484,
        "pop": 190972
    },
    {
        "name": "Amanfrom, GH",
        "lat": 5.53532,
        "lng": -0.39827,
        "pop": 119467
    },
    {
        "name": "Atsiaman, GH",
        "lat": 5.69775,
        "lng": -0.32824,
        "pop": 202932
    },
    {
        "name": "Accra, GH",
        "lat": 5.55602,
        "lng": -0.1969,
        "pop": 1963264
    },
    {
        "name": "Sekondi, GH",
        "lat": 4.93422,
        "lng": -1.71454,
        "pop": 285506
    },
    {
        "name": "Serekunda, GM",
        "lat": 13.43833,
        "lng": -16.67806,
        "pop": 340000
    },
    {
        "name": "Siguiri, GN",
        "lat": 11.42282,
        "lng": -9.16852,
        "pop": 148018
    },
    {
        "name": "Kamsar, GN",
        "lat": 10.65,
        "lng": -14.61667,
        "pop": 113350
    },
    {
        "name": "Nz\u00e9r\u00e9kor\u00e9, GN",
        "lat": 7.75624,
        "lng": -8.8179,
        "pop": 226426
    },
    {
        "name": "Man\u00e9ah, GN",
        "lat": 9.73333,
        "lng": -13.41667,
        "pop": 194297
    },
    {
        "name": "Lab\u00e9, GN",
        "lat": 11.31823,
        "lng": -12.28332,
        "pop": 107571
    },
    {
        "name": "Kissidougou, GN",
        "lat": 9.1848,
        "lng": -10.09987,
        "pop": 116019
    },
    {
        "name": "Kindia, GN",
        "lat": 10.05692,
        "lng": -12.86576,
        "pop": 161024
    },
    {
        "name": "Kankan, GN",
        "lat": 10.38542,
        "lng": -9.30568,
        "pop": 221428
    },
    {
        "name": "Dubr\u00e9ka, GN",
        "lat": 9.79111,
        "lng": -13.52333,
        "pop": 182296
    },
    {
        "name": "Dixinn, GN",
        "lat": 9.55111,
        "lng": -13.67306,
        "pop": 137287
    },
    {
        "name": "Conakry, GN",
        "lat": 9.53795,
        "lng": -13.67729,
        "pop": 1928389
    },
    {
        "name": "Camayenne, GN",
        "lat": 9.535,
        "lng": -13.68778,
        "pop": 1871242
    },
    {
        "name": "Malabo, GQ",
        "lat": 3.75578,
        "lng": 8.78166,
        "pop": 155963
    },
    {
        "name": "Bata, GQ",
        "lat": 1.86391,
        "lng": 9.76582,
        "pop": 173046
    },
    {
        "name": "Bissau, GW",
        "lat": 11.86357,
        "lng": -15.59767,
        "pop": 439704
    },
    {
        "name": "Thika, KE",
        "lat": -1.03326,
        "lng": 37.06933,
        "pop": 251407
    },
    {
        "name": "Ruiru, KE",
        "lat": -1.14665,
        "lng": 36.96087,
        "pop": 490120
    },
    {
        "name": "Ngong, KE",
        "lat": -1.3527,
        "lng": 36.6699,
        "pop": 102323
    },
    {
        "name": "Nakuru, KE",
        "lat": -0.30719,
        "lng": 36.07225,
        "pop": 570674
    },
    {
        "name": "Naivasha, KE",
        "lat": -0.71383,
        "lng": 36.43261,
        "pop": 198444
    },
    {
        "name": "Nairobi, KE",
        "lat": -1.28333,
        "lng": 36.81667,
        "pop": 4397073
    },
    {
        "name": "Mwala, KE",
        "lat": -1.35255,
        "lng": 37.45482,
        "pop": 181896
    },
    {
        "name": "Mombasa, KE",
        "lat": -4.05466,
        "lng": 39.66359,
        "pop": 1208333
    },
    {
        "name": "Matuga, KE",
        "lat": -4.168,
        "lng": 39.57068,
        "pop": 194252
    },
    {
        "name": "Mandera, KE",
        "lat": 3.93726,
        "lng": 41.85688,
        "pop": 114718
    },
    {
        "name": "Malindi, KE",
        "lat": -3.21799,
        "lng": 40.11692,
        "pop": 119859
    },
    {
        "name": "Limuru, KE",
        "lat": -1.1136,
        "lng": 36.64205,
        "pop": 159314
    },
    {
        "name": "Ongata Rongai, KE",
        "lat": -1.3953,
        "lng": 36.764,
        "pop": 172569
    },
    {
        "name": "Kitale, KE",
        "lat": 1.01572,
        "lng": 35.00622,
        "pop": 162174
    },
    {
        "name": "Kisumu, KE",
        "lat": -0.10221,
        "lng": 34.76171,
        "pop": 397957
    },
    {
        "name": "Kisii, KE",
        "lat": -0.68174,
        "lng": 34.76666,
        "pop": 112417
    },
    {
        "name": "Kikuyu, KE",
        "lat": -1.24627,
        "lng": 36.66291,
        "pop": 323881
    },
    {
        "name": "Kiambu, KE",
        "lat": -1.17139,
        "lng": 36.83556,
        "pop": 147870
    },
    {
        "name": "Khwisero, KE",
        "lat": 0.17124,
        "lng": 34.59466,
        "pop": 113294
    },
    {
        "name": "Karuri, KE",
        "lat": -1.17641,
        "lng": 36.7564,
        "pop": 194342
    },
    {
        "name": "Karuri, KE",
        "lat": -0.7,
        "lng": 37.18333,
        "pop": 194342
    },
    {
        "name": "Kakamega, KE",
        "lat": 0.28422,
        "lng": 34.75229,
        "pop": 1867579
    },
    {
        "name": "Jomvu, KE",
        "lat": -3.98623,
        "lng": 39.6082,
        "pop": 163415
    },
    {
        "name": "Garissa, KE",
        "lat": -0.45275,
        "lng": 39.64601,
        "pop": 163399
    },
    {
        "name": "Eldoret, KE",
        "lat": 0.52036,
        "lng": 35.26993,
        "pop": 475716
    },
    {
        "name": "Kitengela, KE",
        "lat": -1.47612,
        "lng": 36.96144,
        "pop": 154436
    },
    {
        "name": "Juja, KE",
        "lat": -1.10148,
        "lng": 37.0132,
        "pop": 156041
    },
    {
        "name": "Mlolongo, KE",
        "lat": -1.39639,
        "lng": 36.94028,
        "pop": 136351
    },
    {
        "name": "Monrovia, LR",
        "lat": 6.30054,
        "lng": -10.7969,
        "pop": 1542549
    },
    {
        "name": "Maseru, LS",
        "lat": -29.31667,
        "lng": 27.48333,
        "pop": 359753
    },
    {
        "name": "Tobruk, LY",
        "lat": 32.08963,
        "lng": 23.95385,
        "pop": 141499
    },
    {
        "name": "Darnah, LY",
        "lat": 32.76704,
        "lng": 22.63669,
        "pop": 102581
    },
    {
        "name": "Benghazi, LY",
        "lat": 32.11486,
        "lng": 20.06859,
        "pop": 757490
    },
    {
        "name": "Al Bay\u1e11\u0101\u2019, LY",
        "lat": 32.76272,
        "lng": 21.75506,
        "pop": 129439
    },
    {
        "name": "Ajdabiya, LY",
        "lat": 30.75545,
        "lng": 20.22625,
        "pop": 131773
    },
    {
        "name": "Zliten, LY",
        "lat": 32.46739,
        "lng": 14.56874,
        "pop": 203790
    },
    {
        "name": "Tripoli, LY",
        "lat": 32.88743,
        "lng": 13.18733,
        "pop": 1302947
    },
    {
        "name": "T\u0101j\u016br\u0101\u2019, LY",
        "lat": 32.88167,
        "lng": 13.35056,
        "pop": 100000
    },
    {
        "name": "Sirte, LY",
        "lat": 31.20892,
        "lng": 16.58866,
        "pop": 106705
    },
    {
        "name": "Sabha, LY",
        "lat": 27.03766,
        "lng": 14.42832,
        "pop": 149329
    },
    {
        "name": "Qa\u015fr Bin Ghash\u012br, LY",
        "lat": 32.68333,
        "lng": 13.18333,
        "pop": 100069
    },
    {
        "name": "Misratah, LY",
        "lat": 32.37535,
        "lng": 15.09254,
        "pop": 355657
    },
    {
        "name": "Janz\u016br, LY",
        "lat": 32.81868,
        "lng": 13.01727,
        "pop": 154389
    },
    {
        "name": "Zawiya, LY",
        "lat": 32.75222,
        "lng": 12.72778,
        "pop": 186123
    },
    {
        "name": "Az Z\u0101w\u012byah, LY",
        "lat": 32.7571,
        "lng": 12.72764,
        "pop": 200000
    },
    {
        "name": "Al Ajaylat, LY",
        "lat": 32.75718,
        "lng": 12.37633,
        "pop": 130546
    },
    {
        "name": "Al Khums, LY",
        "lat": 32.64861,
        "lng": 14.26191,
        "pop": 201943
    },
    {
        "name": "Al Jumayl, LY",
        "lat": 32.85286,
        "lng": 12.0612,
        "pop": 102000
    },
    {
        "name": "Al Jad\u012bd, LY",
        "lat": 27.05,
        "lng": 14.4,
        "pop": 126386
    },
    {
        "name": "T\u00e9touan, MA",
        "lat": 35.57845,
        "lng": -5.36837,
        "pop": 415810
    },
    {
        "name": "Temara, MA",
        "lat": 33.92866,
        "lng": -6.90656,
        "pop": 342345
    },
    {
        "name": "Taza, MA",
        "lat": 34.21,
        "lng": -4.01,
        "pop": 162110
    },
    {
        "name": "Taourirt, MA",
        "lat": 34.40731,
        "lng": -2.89732,
        "pop": 112908
    },
    {
        "name": "Tangier, MA",
        "lat": 35.76727,
        "lng": -5.79975,
        "pop": 1035141
    },
    {
        "name": "Sidi Slimane, MA",
        "lat": 34.26479,
        "lng": -5.92598,
        "pop": 101541
    },
    {
        "name": "Settat, MA",
        "lat": 33.00103,
        "lng": -7.61662,
        "pop": 155333
    },
    {
        "name": "Sal\u00e9, MA",
        "lat": 34.0531,
        "lng": -6.79846,
        "pop": 972299
    },
    {
        "name": "Safi, MA",
        "lat": 32.29939,
        "lng": -9.23718,
        "pop": 336883
    },
    {
        "name": "Rabat, MA",
        "lat": 34.01325,
        "lng": -6.83255,
        "pop": 1655753
    },
    {
        "name": "Oujda, MA",
        "lat": 34.68139,
        "lng": -1.90858,
        "pop": 539711
    },
    {
        "name": "Oued Zem, MA",
        "lat": 32.8627,
        "lng": -6.57359,
        "pop": 104029
    },
    {
        "name": "Nador, MA",
        "lat": 35.16813,
        "lng": -2.93352,
        "pop": 176600
    },
    {
        "name": "Mohammedia, MA",
        "lat": 33.68607,
        "lng": -7.38298,
        "pop": 227799
    },
    {
        "name": "Meknes, MA",
        "lat": 33.89352,
        "lng": -5.54727,
        "pop": 568295
    },
    {
        "name": "Marrakesh, MA",
        "lat": 31.63416,
        "lng": -7.99994,
        "pop": 995871
    },
    {
        "name": "Larache, MA",
        "lat": 35.19321,
        "lng": -6.15572,
        "pop": 136505
    },
    {
        "name": "Ksar El Kebir, MA",
        "lat": 35.00044,
        "lng": -5.90378,
        "pop": 138262
    },
    {
        "name": "Khouribga, MA",
        "lat": 32.88108,
        "lng": -6.9063,
        "pop": 214241
    },
    {
        "name": "Khenifra, MA",
        "lat": 32.93492,
        "lng": -5.66167,
        "pop": 128318
    },
    {
        "name": "Kenitra, MA",
        "lat": 34.26101,
        "lng": -6.5802,
        "pop": 470949
    },
    {
        "name": "Inezgane, MA",
        "lat": 30.35535,
        "lng": -9.53639,
        "pop": 142320
    },
    {
        "name": "Guelmim, MA",
        "lat": 28.98696,
        "lng": -10.05738,
        "pop": 129200
    },
    {
        "name": "Al Fqih Ben \u00c7alah, MA",
        "lat": 32.50213,
        "lng": -6.68771,
        "pop": 111402
    },
    {
        "name": "Fes, MA",
        "lat": 34.03313,
        "lng": -5.00028,
        "pop": 1191905
    },
    {
        "name": "El Kelaa des Srarhna, MA",
        "lat": 32.05121,
        "lng": -7.41079,
        "pop": 103982
    },
    {
        "name": "El Jadida, MA",
        "lat": 33.25682,
        "lng": -8.50882,
        "pop": 212863
    },
    {
        "name": "Dar Bouazza, MA",
        "lat": 33.51535,
        "lng": -7.81677,
        "pop": 165295
    },
    {
        "name": "Casablanca, MA",
        "lat": 33.58831,
        "lng": -7.61138,
        "pop": 3665954
    },
    {
        "name": "Bouskoura, MA",
        "lat": 33.44976,
        "lng": -7.65239,
        "pop": 112501
    },
    {
        "name": "Berkane, MA",
        "lat": 34.92,
        "lng": -2.32,
        "pop": 119284
    },
    {
        "name": "Beni Mellal, MA",
        "lat": 32.33725,
        "lng": -6.34983,
        "pop": 210397
    },
    {
        "name": "Berrechid, MA",
        "lat": 33.26553,
        "lng": -7.58754,
        "pop": 149201
    },
    {
        "name": "Khemisset, MA",
        "lat": 33.82404,
        "lng": -6.06627,
        "pop": 143640
    },
    {
        "name": "Al Hoce\u00efma, MA",
        "lat": 35.25165,
        "lng": -3.93723,
        "pop": 395644
    },
    {
        "name": "Agadir, MA",
        "lat": 30.42018,
        "lng": -9.59815,
        "pop": 698310
    },
    {
        "name": "Errachidia, MA",
        "lat": 31.9314,
        "lng": -4.42663,
        "pop": 100870
    },
    {
        "name": "Ait Melloul, MA",
        "lat": 30.34164,
        "lng": -9.50356,
        "pop": 187652
    },
    {
        "name": "Sal\u00e9 Al Jadida, MA",
        "lat": 33.99722,
        "lng": -6.74047,
        "pop": 200000
    },
    {
        "name": "Toamasina, MG",
        "lat": -18.1492,
        "lng": 49.40234,
        "pop": 345107
    },
    {
        "name": "Toliara, MG",
        "lat": -23.35,
        "lng": 43.66667,
        "pop": 178725
    },
    {
        "name": "Mahajanga, MG",
        "lat": -15.71667,
        "lng": 46.31667,
        "pop": 260556
    },
    {
        "name": "Fianarantsoa, MG",
        "lat": -21.45267,
        "lng": 47.08569,
        "pop": 203105
    },
    {
        "name": "Antsiranana, MG",
        "lat": -12.31732,
        "lng": 49.29188,
        "pop": 136959
    },
    {
        "name": "Antsirabe, MG",
        "lat": -19.86586,
        "lng": 47.03333,
        "pop": 260907
    },
    {
        "name": "Antananarivo, MG",
        "lat": -18.91368,
        "lng": 47.53613,
        "pop": 1349501
    },
    {
        "name": "Sikasso, ML",
        "lat": 11.31755,
        "lng": -5.66654,
        "pop": 349324
    },
    {
        "name": "S\u00e9gou, ML",
        "lat": 13.44032,
        "lng": -6.25947,
        "pop": 205787
    },
    {
        "name": "San, ML",
        "lat": 13.29701,
        "lng": -4.89627,
        "pop": 103227
    },
    {
        "name": "Mopti, ML",
        "lat": 14.4843,
        "lng": -4.18296,
        "pop": 186187
    },
    {
        "name": "Koutiala, ML",
        "lat": 12.38723,
        "lng": -5.46507,
        "pop": 218031
    },
    {
        "name": "Kayes, ML",
        "lat": 14.44776,
        "lng": -11.44393,
        "pop": 194716
    },
    {
        "name": "Kati, ML",
        "lat": 12.74409,
        "lng": -8.07257,
        "pop": 130254
    },
    {
        "name": "Kalaban Koro, ML",
        "lat": 12.57329,
        "lng": -8.02907,
        "pop": 148247
    },
    {
        "name": "Gao, ML",
        "lat": 16.27167,
        "lng": -0.04472,
        "pop": 133110
    },
    {
        "name": "Bamako, ML",
        "lat": 12.60915,
        "lng": -7.97522,
        "pop": 4227569
    },
    {
        "name": "Nouakchott, MR",
        "lat": 18.08581,
        "lng": -15.9785,
        "pop": 1184530
    },
    {
        "name": "Nouadhibou, MR",
        "lat": 20.94188,
        "lng": -17.03842,
        "pop": 146048
    },
    {
        "name": "Vacoas, MU",
        "lat": -20.29806,
        "lng": 57.47833,
        "pop": 115289
    },
    {
        "name": "Port Louis, MU",
        "lat": -20.16194,
        "lng": 57.49889,
        "pop": 155226
    },
    {
        "name": "Beau Bassin-Rose Hill, MU",
        "lat": -20.23325,
        "lng": 57.46609,
        "pop": 111355
    },
    {
        "name": "Zomba, MW",
        "lat": -15.38596,
        "lng": 35.3188,
        "pop": 118440
    },
    {
        "name": "Mzuzu, MW",
        "lat": -11.46556,
        "lng": 34.02071,
        "pop": 249564
    },
    {
        "name": "Lilongwe, MW",
        "lat": -13.96692,
        "lng": 33.78725,
        "pop": 1115815
    },
    {
        "name": "Blantyre, MW",
        "lat": -15.78499,
        "lng": 35.00854,
        "pop": 902588
    },
    {
        "name": "Xai-Xai, MZ",
        "lat": -25.05194,
        "lng": 33.64417,
        "pop": 154356
    },
    {
        "name": "Mocuba, MZ",
        "lat": -16.8375,
        "lng": 36.98556,
        "pop": 196001
    },
    {
        "name": "Tete, MZ",
        "lat": -16.15639,
        "lng": 33.58667,
        "pop": 357000
    },
    {
        "name": "Ressano Garcia, MZ",
        "lat": -25.44278,
        "lng": 31.99528,
        "pop": 110000
    },
    {
        "name": "Quelimane, MZ",
        "lat": -17.87861,
        "lng": 36.88833,
        "pop": 349842
    },
    {
        "name": "Pemba, MZ",
        "lat": -12.97395,
        "lng": 40.51775,
        "pop": 232932
    },
    {
        "name": "Nampula, MZ",
        "lat": -15.11646,
        "lng": 39.2666,
        "pop": 770379
    },
    {
        "name": "Nacala, MZ",
        "lat": -14.56257,
        "lng": 40.68538,
        "pop": 239808
    },
    {
        "name": "Maxixe, MZ",
        "lat": -23.85972,
        "lng": 35.34722,
        "pop": 126408
    },
    {
        "name": "Matola, MZ",
        "lat": -25.96222,
        "lng": 32.45889,
        "pop": 1198988
    },
    {
        "name": "Maputo, MZ",
        "lat": -25.96553,
        "lng": 32.58322,
        "pop": 1254837
    },
    {
        "name": "Mandimba, MZ",
        "lat": -14.3525,
        "lng": 35.65056,
        "pop": 118922
    },
    {
        "name": "Lichinga, MZ",
        "lat": -13.31278,
        "lng": 35.24056,
        "pop": 281341
    },
    {
        "name": "Gur\u00fa\u00e8, MZ",
        "lat": -15.46694,
        "lng": 36.97778,
        "pop": 168971
    },
    {
        "name": "Chimoio, MZ",
        "lat": -19.11639,
        "lng": 33.48333,
        "pop": 422046
    },
    {
        "name": "Beira, MZ",
        "lat": -19.84361,
        "lng": 34.83889,
        "pop": 687764
    },
    {
        "name": "Angoche, MZ",
        "lat": -16.2325,
        "lng": 39.90861,
        "pop": 104540
    },
    {
        "name": "Windhoek, NA",
        "lat": -22.55941,
        "lng": 17.08323,
        "pop": 386219
    },
    {
        "name": "Zinder, NE",
        "lat": 13.80716,
        "lng": 8.9881,
        "pop": 318874
    },
    {
        "name": "Tahoua, NE",
        "lat": 14.8888,
        "lng": 5.2692,
        "pop": 159468
    },
    {
        "name": "Niamey, NE",
        "lat": 13.51366,
        "lng": 2.1098,
        "pop": 1323691
    },
    {
        "name": "Maradi, NE",
        "lat": 13.5,
        "lng": 7.10174,
        "pop": 361702
    },
    {
        "name": "Arlit, NE",
        "lat": 18.73694,
        "lng": 7.38528,
        "pop": 106448
    },
    {
        "name": "Agadez, NE",
        "lat": 16.97333,
        "lng": 7.99111,
        "pop": 149549
    },
    {
        "name": "Zaria, NG",
        "lat": 11.11128,
        "lng": 7.7227,
        "pop": 980000
    },
    {
        "name": "Yola, NG",
        "lat": 9.20839,
        "lng": 12.48146,
        "pop": 460000
    },
    {
        "name": "Yenagoa, NG",
        "lat": 4.92675,
        "lng": 6.26764,
        "pop": 365000
    },
    {
        "name": "Warri, NG",
        "lat": 5.51737,
        "lng": 5.75006,
        "pop": 910000
    },
    {
        "name": "Uyo, NG",
        "lat": 5.05127,
        "lng": 7.9335,
        "pop": 436606
    },
    {
        "name": "Uromi, NG",
        "lat": 6.7,
        "lng": 6.33333,
        "pop": 108608
    },
    {
        "name": "Umuahia, NG",
        "lat": 5.52491,
        "lng": 7.49461,
        "pop": 370000
    },
    {
        "name": "Ugep, NG",
        "lat": 5.80865,
        "lng": 8.08098,
        "pop": 200276
    },
    {
        "name": "Surulere, NG",
        "lat": 6.50153,
        "lng": 3.35808,
        "pop": 191920
    },
    {
        "name": "Suleja, NG",
        "lat": 9.18059,
        "lng": 7.17939,
        "pop": 162135
    },
    {
        "name": "Sokoto, NG",
        "lat": 13.06269,
        "lng": 5.24322,
        "pop": 1040000
    },
    {
        "name": "Shomolu, NG",
        "lat": 6.53891,
        "lng": 3.3742,
        "pop": 154390
    },
    {
        "name": "Saki, NG",
        "lat": 8.66762,
        "lng": 3.39393,
        "pop": 178677
    },
    {
        "name": "Shagamu, NG",
        "lat": 6.8485,
        "lng": 3.64633,
        "pop": 214558
    },
    {
        "name": "Sapele, NG",
        "lat": 5.89405,
        "lng": 5.67666,
        "pop": 305000
    },
    {
        "name": "Port Harcourt, NG",
        "lat": 4.77742,
        "lng": 7.0134,
        "pop": 2120000
    },
    {
        "name": "Pindiga, NG",
        "lat": 9.98433,
        "lng": 10.95229,
        "pop": 106322
    },
    {
        "name": "Oyo, NG",
        "lat": 7.85367,
        "lng": 3.93235,
        "pop": 736072
    },
    {
        "name": "Owo, NG",
        "lat": 7.1962,
        "lng": 5.58681,
        "pop": 276574
    },
    {
        "name": "Owerri, NG",
        "lat": 5.48363,
        "lng": 7.03325,
        "pop": 545000
    },
    {
        "name": "Osogbo, NG",
        "lat": 7.77104,
        "lng": 4.55698,
        "pop": 645000
    },
    {
        "name": "Oshodi, NG",
        "lat": 6.55504,
        "lng": 3.34363,
        "pop": 170870
    },
    {
        "name": "Onitsha, NG",
        "lat": 6.14978,
        "lng": 6.78569,
        "pop": 1553000
    },
    {
        "name": "Ondo, NG",
        "lat": 7.09316,
        "lng": 4.83528,
        "pop": 375000
    },
    {
        "name": "Okrika, NG",
        "lat": 4.74215,
        "lng": 7.08368,
        "pop": 133271
    },
    {
        "name": "Okigwe, NG",
        "lat": 5.82917,
        "lng": 7.35056,
        "pop": 115499
    },
    {
        "name": "Okene, NG",
        "lat": 7.55122,
        "lng": 6.23589,
        "pop": 479178
    },
    {
        "name": "Ogbomoso, NG",
        "lat": 8.13373,
        "lng": 4.24014,
        "pop": 433030
    },
    {
        "name": "Offa, NG",
        "lat": 8.14911,
        "lng": 4.72074,
        "pop": 113830
    },
    {
        "name": "Nsukka, NG",
        "lat": 6.85783,
        "lng": 7.39577,
        "pop": 111017
    },
    {
        "name": "Nnewi, NG",
        "lat": 6.01962,
        "lng": 6.91729,
        "pop": 193987
    },
    {
        "name": "Nkpor, NG",
        "lat": 6.15038,
        "lng": 6.83042,
        "pop": 103733
    },
    {
        "name": "Nguru, NG",
        "lat": 12.87695,
        "lng": 10.45536,
        "pop": 111014
    },
    {
        "name": "Mushin, NG",
        "lat": 6.52799,
        "lng": 3.35411,
        "pop": 199000
    },
    {
        "name": "Mubi, NG",
        "lat": 10.26858,
        "lng": 13.26701,
        "pop": 225705
    },
    {
        "name": "Modakeke, NG",
        "lat": 7.38299,
        "lng": 4.26031,
        "pop": 119529
    },
    {
        "name": "Minna, NG",
        "lat": 9.61524,
        "lng": 6.54776,
        "pop": 425000
    },
    {
        "name": "Makurdi, NG",
        "lat": 7.73375,
        "lng": 8.52139,
        "pop": 390000
    },
    {
        "name": "Maiduguri, NG",
        "lat": 11.84692,
        "lng": 13.15712,
        "pop": 1110000
    },
    {
        "name": "Lekki, NG",
        "lat": 6.41222,
        "lng": 4.0947,
        "pop": 401272
    },
    {
        "name": "Lagos, NG",
        "lat": 6.45407,
        "lng": 3.39467,
        "pop": 15388000
    },
    {
        "name": "Lafiagi, NG",
        "lat": 8.85299,
        "lng": 5.41641,
        "pop": 102779
    },
    {
        "name": "Lafia, NG",
        "lat": 8.4939,
        "lng": 8.51532,
        "pop": 127236
    },
    {
        "name": "Kisi, NG",
        "lat": 9.08297,
        "lng": 3.85196,
        "pop": 155510
    },
    {
        "name": "Katsina, NG",
        "lat": 12.99082,
        "lng": 7.60177,
        "pop": 670000
    },
    {
        "name": "Kano, NG",
        "lat": 12.00012,
        "lng": 8.51672,
        "pop": 4910000
    },
    {
        "name": "Kaduna, NG",
        "lat": 10.52641,
        "lng": 7.43879,
        "pop": 1850000
    },
    {
        "name": "Jos, NG",
        "lat": 9.92849,
        "lng": 8.89212,
        "pop": 1040000
    },
    {
        "name": "Jimeta, NG",
        "lat": 9.27949,
        "lng": 12.45819,
        "pop": 248148
    },
    {
        "name": "Jalingo, NG",
        "lat": 8.89367,
        "lng": 11.3596,
        "pop": 117757
    },
    {
        "name": "Iwo, NG",
        "lat": 7.63527,
        "lng": 4.18156,
        "pop": 250443
    },
    {
        "name": "Iseyin, NG",
        "lat": 7.97022,
        "lng": 3.59626,
        "pop": 365300
    },
    {
        "name": "Ise-Ekiti, NG",
        "lat": 7.46478,
        "lng": 5.42333,
        "pop": 190063
    },
    {
        "name": "Irewe, NG",
        "lat": 6.41692,
        "lng": 3.14058,
        "pop": 139494
    },
    {
        "name": "Inisa, NG",
        "lat": 7.84855,
        "lng": 4.32981,
        "pop": 164161
    },
    {
        "name": "Ilorin, NG",
        "lat": 8.49664,
        "lng": 4.54214,
        "pop": 1080000
    },
    {
        "name": "Ilobu, NG",
        "lat": 7.83879,
        "lng": 4.48672,
        "pop": 118089
    },
    {
        "name": "Ilesa, NG",
        "lat": 7.62789,
        "lng": 4.74161,
        "pop": 325000
    },
    {
        "name": "Ila Orangun, NG",
        "lat": 8.01714,
        "lng": 4.90421,
        "pop": 179192
    },
    {
        "name": "Ikot Ekpene, NG",
        "lat": 5.18194,
        "lng": 7.71481,
        "pop": 254806
    },
    {
        "name": "Ikirun, NG",
        "lat": 7.91283,
        "lng": 4.66741,
        "pop": 134240
    },
    {
        "name": "Ikire, NG",
        "lat": 7.36983,
        "lng": 4.1863,
        "pop": 222160
    },
    {
        "name": "Ikere-Ekiti, NG",
        "lat": 7.49748,
        "lng": 5.23041,
        "pop": 103054
    },
    {
        "name": "Ikeja, NG",
        "lat": 6.59651,
        "lng": 3.34205,
        "pop": 313196
    },
    {
        "name": "Ikare, NG",
        "lat": 7.52591,
        "lng": 5.75342,
        "pop": 465000
    },
    {
        "name": "Ijero-Ekiti, NG",
        "lat": 7.81514,
        "lng": 5.06716,
        "pop": 167632
    },
    {
        "name": "Ijebu Ode, NG",
        "lat": 6.81944,
        "lng": 3.91731,
        "pop": 360000
    },
    {
        "name": "Ijebu-Igbo, NG",
        "lat": 6.97198,
        "lng": 3.99938,
        "pop": 109261
    },
    {
        "name": "Igboho, NG",
        "lat": 8.83784,
        "lng": 3.75628,
        "pop": 136764
    },
    {
        "name": "Ile-Ife, NG",
        "lat": 7.4824,
        "lng": 4.56032,
        "pop": 560000
    },
    {
        "name": "Ibadan, NG",
        "lat": 7.37756,
        "lng": 3.90591,
        "pop": 3649000
    },
    {
        "name": "Hadejia, NG",
        "lat": 12.45347,
        "lng": 10.04115,
        "pop": 110753
    },
    {
        "name": "Gusau, NG",
        "lat": 12.17024,
        "lng": 6.66412,
        "pop": 226857
    },
    {
        "name": "Gombe, NG",
        "lat": 10.28969,
        "lng": 11.16729,
        "pop": 560000
    },
    {
        "name": "Gbongan, NG",
        "lat": 7.47734,
        "lng": 4.35351,
        "pop": 139485
    },
    {
        "name": "Gboko, NG",
        "lat": 7.32275,
        "lng": 9.00108,
        "pop": 365000
    },
    {
        "name": "Gashua, NG",
        "lat": 12.87398,
        "lng": 11.04057,
        "pop": 125817
    },
    {
        "name": "Funtua, NG",
        "lat": 11.52351,
        "lng": 7.31174,
        "pop": 136811
    },
    {
        "name": "Esuk Oron, NG",
        "lat": 4.80293,
        "lng": 8.25341,
        "pop": 112033
    },
    {
        "name": "Enugu, NG",
        "lat": 6.44132,
        "lng": 7.49883,
        "pop": 950000
    },
    {
        "name": "Ejigbo, NG",
        "lat": 7.90303,
        "lng": 4.31364,
        "pop": 138357
    },
    {
        "name": "Efon-Alaaye, NG",
        "lat": 7.65649,
        "lng": 4.92235,
        "pop": 279319
    },
    {
        "name": "Ede, NG",
        "lat": 7.73635,
        "lng": 4.43536,
        "pop": 159866
    },
    {
        "name": "Ebute Ikorodu, NG",
        "lat": 6.60086,
        "lng": 3.48818,
        "pop": 535619
    },
    {
        "name": "Calabar, NG",
        "lat": 4.95893,
        "lng": 8.32695,
        "pop": 540000
    },
    {
        "name": "Buguma, NG",
        "lat": 4.73614,
        "lng": 6.86236,
        "pop": 135404
    },
    {
        "name": "Birnin Kebbi, NG",
        "lat": 12.45389,
        "lng": 4.1975,
        "pop": 108164
    },
    {
        "name": "Bida, NG",
        "lat": 9.08044,
        "lng": 6.0099,
        "pop": 400000
    },
    {
        "name": "Benin City, NG",
        "lat": 6.33815,
        "lng": 5.62575,
        "pop": 1782000
    },
    {
        "name": "Bauchi, NG",
        "lat": 10.31032,
        "lng": 9.84388,
        "pop": 693700
    },
    {
        "name": "Bama, NG",
        "lat": 11.52134,
        "lng": 13.68952,
        "pop": 118121
    },
    {
        "name": "Azare, NG",
        "lat": 11.67478,
        "lng": 10.19069,
        "pop": 105687
    },
    {
        "name": "Awka, NG",
        "lat": 6.21269,
        "lng": 7.07199,
        "pop": 167738
    },
    {
        "name": "Atani, NG",
        "lat": 6.01277,
        "lng": 6.74768,
        "pop": 230000
    },
    {
        "name": "Amaigbo, NG",
        "lat": 5.78917,
        "lng": 7.83829,
        "pop": 127300
    },
    {
        "name": "Aliayabiagba, NG",
        "lat": 6.45,
        "lng": 3.33333,
        "pop": 228000
    },
    {
        "name": "Akure, NG",
        "lat": 7.25256,
        "lng": 5.19312,
        "pop": 730000
    },
    {
        "name": "Ado-Ekiti, NG",
        "lat": 7.62329,
        "lng": 5.22087,
        "pop": 435000
    },
    {
        "name": "Abuja, NG",
        "lat": 9.05785,
        "lng": 7.49508,
        "pop": 2690000
    },
    {
        "name": "Abeokuta, NG",
        "lat": 7.15571,
        "lng": 3.34509,
        "pop": 735000
    },
    {
        "name": "Abakaliki, NG",
        "lat": 6.32485,
        "lng": 8.11368,
        "pop": 134102
    },
    {
        "name": "Aba, NG",
        "lat": 5.10658,
        "lng": 7.36667,
        "pop": 1160000
    },
    {
        "name": "Obalende, NG",
        "lat": 6.44694,
        "lng": 3.41528,
        "pop": 342000
    },
    {
        "name": "Ajegunle, NG",
        "lat": 6.45197,
        "lng": 3.33115,
        "pop": 550000
    },
    {
        "name": "Alimosho, NG",
        "lat": 6.60656,
        "lng": 3.30235,
        "pop": 308290
    },
    {
        "name": "Akowonjo, NG",
        "lat": 6.61012,
        "lng": 3.30968,
        "pop": 308900
    },
    {
        "name": "Chakwama, NG",
        "lat": 11.55965,
        "lng": 9.66407,
        "pop": 200000
    },
    {
        "name": "Saint-Paul, RE",
        "lat": -21.00961,
        "lng": 55.27134,
        "pop": 105240
    },
    {
        "name": "Saint-Denis, RE",
        "lat": -20.88231,
        "lng": 55.4504,
        "pop": 154765
    },
    {
        "name": "Musanze, RW",
        "lat": -1.49984,
        "lng": 29.63497,
        "pop": 153368
    },
    {
        "name": "Nyagatare, RW",
        "lat": -1.2952,
        "lng": 30.3226,
        "pop": 100000
    },
    {
        "name": "Kigali, RW",
        "lat": -1.94995,
        "lng": 30.05885,
        "pop": 1132686
    },
    {
        "name": "Gisenyi, RW",
        "lat": -1.70278,
        "lng": 29.25639,
        "pop": 172357
    },
    {
        "name": "Wad Medani, SD",
        "lat": 14.40118,
        "lng": 33.51989,
        "pop": 332714
    },
    {
        "name": "Omdurman, SD",
        "lat": 15.64453,
        "lng": 32.47773,
        "pop": 1849659
    },
    {
        "name": "Singa, SD",
        "lat": 13.1483,
        "lng": 33.93117,
        "pop": 250000
    },
    {
        "name": "Sennar, SD",
        "lat": 13.56907,
        "lng": 33.56718,
        "pop": 130122
    },
    {
        "name": "Rabak, SD",
        "lat": 13.18087,
        "lng": 32.73999,
        "pop": 135281
    },
    {
        "name": "Nyala, SD",
        "lat": 12.04888,
        "lng": 24.88069,
        "pop": 565734
    },
    {
        "name": "Kosti, SD",
        "lat": 13.1629,
        "lng": 32.66347,
        "pop": 345068
    },
    {
        "name": "Kassala, SD",
        "lat": 15.45099,
        "lng": 36.39998,
        "pop": 401477
    },
    {
        "name": "Port Sudan, SD",
        "lat": 19.61745,
        "lng": 37.21644,
        "pop": 489725
    },
    {
        "name": "Atbara, SD",
        "lat": 17.70217,
        "lng": 33.98638,
        "pop": 112021
    },
    {
        "name": "An Nuh\u016bd, SD",
        "lat": 12.7,
        "lng": 28.43333,
        "pop": 108008
    },
    {
        "name": "El Obeid, SD",
        "lat": 13.18421,
        "lng": 30.21669,
        "pop": 393311
    },
    {
        "name": "Al Qadarif, SD",
        "lat": 14.03493,
        "lng": 35.38344,
        "pop": 363945
    },
    {
        "name": "Al Man\u0101qil, SD",
        "lat": 14.2459,
        "lng": 32.9891,
        "pop": 128297
    },
    {
        "name": "Khartoum North, SD",
        "lat": 15.64925,
        "lng": 32.53458,
        "pop": 1012211
    },
    {
        "name": "Khartoum, SD",
        "lat": 15.55177,
        "lng": 32.53241,
        "pop": 1974647
    },
    {
        "name": "El Geneina Fort, SD",
        "lat": 13.47481,
        "lng": 22.45744,
        "pop": 134264
    },
    {
        "name": "Al-Junaynah, SD",
        "lat": 13.45262,
        "lng": 22.44725,
        "pop": 162981
    },
    {
        "name": "El Fasher, SD",
        "lat": 13.62793,
        "lng": 25.34936,
        "pop": 252609
    },
    {
        "name": "El Daein, SD",
        "lat": 11.46186,
        "lng": 26.12583,
        "pop": 264734
    },
    {
        "name": "Ad-Damir, SD",
        "lat": 17.59898,
        "lng": 33.97205,
        "pop": 103941
    },
    {
        "name": "Ad-Damazin, SD",
        "lat": 11.7891,
        "lng": 34.3592,
        "pop": 186051
    },
    {
        "name": "Gereida, SD",
        "lat": 11.27543,
        "lng": 25.14026,
        "pop": 120000
    },
    {
        "name": "Koidu, SL",
        "lat": 8.64387,
        "lng": -10.9714,
        "pop": 124662
    },
    {
        "name": "Kenema, SL",
        "lat": 7.87687,
        "lng": -11.19025,
        "pop": 143137
    },
    {
        "name": "Freetown, SL",
        "lat": 8.48714,
        "lng": -13.2356,
        "pop": 802639
    },
    {
        "name": "Bo, SL",
        "lat": 7.96472,
        "lng": -11.73833,
        "pop": 174354
    },
    {
        "name": "Ziguinchor, SN",
        "lat": 12.56801,
        "lng": -16.27326,
        "pop": 214874
    },
    {
        "name": "Touba, SN",
        "lat": 14.86229,
        "lng": -15.87532,
        "pop": 1120824
    },
    {
        "name": "Tivaouane, SN",
        "lat": 14.95186,
        "lng": -16.8152,
        "pop": 102658
    },
    {
        "name": "Ti\u00e9bo, SN",
        "lat": 14.63333,
        "lng": -16.23333,
        "pop": 100289
    },
    {
        "name": "Thi\u00e8s Nones, SN",
        "lat": 14.78333,
        "lng": -16.96667,
        "pop": 252320
    },
    {
        "name": "Thi\u00e8s, SN",
        "lat": 14.78944,
        "lng": -16.92602,
        "pop": 317763
    },
    {
        "name": "Tambacounda, SN",
        "lat": 13.77073,
        "lng": -13.66734,
        "pop": 149071
    },
    {
        "name": "Saint-Louis, SN",
        "lat": 16.01793,
        "lng": -16.48962,
        "pop": 254171
    },
    {
        "name": "Rufisque, SN",
        "lat": 14.71542,
        "lng": -17.27334,
        "pop": 295459
    },
    {
        "name": "Pikine, SN",
        "lat": 14.76457,
        "lng": -17.39071,
        "pop": 874062
    },
    {
        "name": "Mbour, SN",
        "lat": 14.42196,
        "lng": -16.96375,
        "pop": 284189
    },
    {
        "name": "Mbak\u00e9, SN",
        "lat": 14.79032,
        "lng": -15.90803,
        "pop": 101451
    },
    {
        "name": "Louga, SN",
        "lat": 15.61867,
        "lng": -16.22436,
        "pop": 113365
    },
    {
        "name": "Kolda, SN",
        "lat": 12.8939,
        "lng": -14.94125,
        "pop": 103574
    },
    {
        "name": "Kaolack, SN",
        "lat": 14.15197,
        "lng": -16.07259,
        "pop": 298904
    },
    {
        "name": "Diourbel, SN",
        "lat": 14.64792,
        "lng": -16.24363,
        "pop": 157554
    },
    {
        "name": "Dakar, SN",
        "lat": 14.6937,
        "lng": -17.44406,
        "pop": 2646503
    },
    {
        "name": "Gu\u00e9diawaye, SN",
        "lat": 14.77446,
        "lng": -17.40212,
        "pop": 329659
    },
    {
        "name": "Ruqi, SO",
        "lat": 9.97293,
        "lng": 43.4276,
        "pop": 148702
    },
    {
        "name": "Mogadishu, SO",
        "lat": 2.03711,
        "lng": 45.34375,
        "pop": 2587183
    },
    {
        "name": "Marka, SO",
        "lat": 1.71594,
        "lng": 44.77166,
        "pop": 230100
    },
    {
        "name": "Kismayo, SO",
        "lat": -0.35817,
        "lng": 42.54536,
        "pop": 234852
    },
    {
        "name": "Hargeysa, SO",
        "lat": 9.56,
        "lng": 44.065,
        "pop": 477876
    },
    {
        "name": "El Dibir, SO",
        "lat": 11.76667,
        "lng": 51.21667,
        "pop": 200000
    },
    {
        "name": "Cabudwaaq, SO",
        "lat": 6.24585,
        "lng": 46.2247,
        "pop": 120000
    },
    {
        "name": "Borama, SO",
        "lat": 9.93611,
        "lng": 43.18278,
        "pop": 597842
    },
    {
        "name": "Berbera, SO",
        "lat": 10.43959,
        "lng": 45.01432,
        "pop": 242344
    },
    {
        "name": "Baidoa, SO",
        "lat": 3.11383,
        "lng": 43.6498,
        "pop": 129839
    },
    {
        "name": "Yei, SS",
        "lat": 4.09444,
        "lng": 30.67639,
        "pop": 260720
    },
    {
        "name": "Winejok, SS",
        "lat": 9.01222,
        "lng": 27.57081,
        "pop": 300000
    },
    {
        "name": "Wau, SS",
        "lat": 7.70111,
        "lng": 27.98972,
        "pop": 127384
    },
    {
        "name": "Malakal, SS",
        "lat": 9.53342,
        "lng": 31.66049,
        "pop": 160765
    },
    {
        "name": "Juba, SS",
        "lat": 4.85165,
        "lng": 31.58247,
        "pop": 450000
    },
    {
        "name": "Manzini, SZ",
        "lat": -26.49884,
        "lng": 31.38004,
        "pop": 110537
    },
    {
        "name": "Ab\u00e9ch\u00e9, TD",
        "lat": 13.82916,
        "lng": 20.8324,
        "pop": 139983
    },
    {
        "name": "Sarh, TD",
        "lat": 9.14555,
        "lng": 18.38331,
        "pop": 138928
    },
    {
        "name": "N'Djamena, TD",
        "lat": 12.10672,
        "lng": 15.0444,
        "pop": 1359526
    },
    {
        "name": "Moundou, TD",
        "lat": 8.57437,
        "lng": 16.07722,
        "pop": 196124
    },
    {
        "name": "Sokod\u00e9, TG",
        "lat": 8.98333,
        "lng": 1.13333,
        "pop": 117811
    },
    {
        "name": "Lom\u00e9, TG",
        "lat": 6.12874,
        "lng": 1.22154,
        "pop": 2188376
    },
    {
        "name": "Kara, TG",
        "lat": 9.55111,
        "lng": 1.18611,
        "pop": 104207
    },
    {
        "name": "Tunis, TN",
        "lat": 36.81897,
        "lng": 10.16579,
        "pop": 693210
    },
    {
        "name": "Sousse, TN",
        "lat": 35.82539,
        "lng": 10.63699,
        "pop": 221715
    },
    {
        "name": "Sukrah, TN",
        "lat": 36.87744,
        "lng": 10.2468,
        "pop": 129693
    },
    {
        "name": "Sfax, TN",
        "lat": 34.74056,
        "lng": 10.76028,
        "pop": 280566
    },
    {
        "name": "Gab\u00e8s, TN",
        "lat": 33.88146,
        "lng": 10.0982,
        "pop": 110075
    },
    {
        "name": "Bizerte, TN",
        "lat": 37.27442,
        "lng": 9.87391,
        "pop": 138430
    },
    {
        "name": "Sejoumi, TN",
        "lat": 36.75583,
        "lng": 10.11833,
        "pop": 109672
    },
    {
        "name": "Aryanah, TN",
        "lat": 36.86012,
        "lng": 10.19337,
        "pop": 114486
    },
    {
        "name": "Kairouan, TN",
        "lat": 35.6781,
        "lng": 10.09633,
        "pop": 139070
    },
    {
        "name": "El Mourouj, TN",
        "lat": 36.71364,
        "lng": 10.2096,
        "pop": 104538
    },
    {
        "name": "Zanzibar, TZ",
        "lat": -6.16394,
        "lng": 39.19793,
        "pop": 709809
    },
    {
        "name": "Tunduma, TZ",
        "lat": -9.3,
        "lng": 32.76667,
        "pop": 219309
    },
    {
        "name": "Tarime, TZ",
        "lat": -1.35,
        "lng": 34.36667,
        "pop": 133043
    },
    {
        "name": "Tanga, TZ",
        "lat": -5.06893,
        "lng": 39.09875,
        "pop": 393429
    },
    {
        "name": "Tabora, TZ",
        "lat": -5.01622,
        "lng": 32.82663,
        "pop": 308741
    },
    {
        "name": "Sumbawanga, TZ",
        "lat": -7.96667,
        "lng": 31.61667,
        "pop": 303986
    },
    {
        "name": "Singida, TZ",
        "lat": -4.81629,
        "lng": 34.74358,
        "pop": 232459
    },
    {
        "name": "Shinyanga, TZ",
        "lat": -3.66393,
        "lng": 33.42118,
        "pop": 139727
    },
    {
        "name": "Sengerema, TZ",
        "lat": -2.66667,
        "lng": 32.65,
        "pop": 110000
    },
    {
        "name": "Nzega, TZ",
        "lat": -4.21667,
        "lng": 33.18333,
        "pop": 125193
    },
    {
        "name": "Mwanza, TZ",
        "lat": -2.51667,
        "lng": 32.9,
        "pop": 1104521
    },
    {
        "name": "Musoma, TZ",
        "lat": -1.5,
        "lng": 33.8,
        "pop": 164172
    },
    {
        "name": "Mpanda, TZ",
        "lat": -6.34379,
        "lng": 31.06951,
        "pop": 204338
    },
    {
        "name": "Moshi, TZ",
        "lat": -3.35,
        "lng": 37.33333,
        "pop": 221733
    },
    {
        "name": "Morogoro, TZ",
        "lat": -6.82102,
        "lng": 37.66122,
        "pop": 471409
    },
    {
        "name": "Mbeya, TZ",
        "lat": -8.9,
        "lng": 33.45,
        "pop": 541603
    },
    {
        "name": "Makumbako, TZ",
        "lat": -8.85,
        "lng": 34.83333,
        "pop": 116232
    },
    {
        "name": "Kigoma, TZ",
        "lat": -4.87694,
        "lng": 29.62667,
        "pop": 232388
    },
    {
        "name": "Kibaha, TZ",
        "lat": -6.76667,
        "lng": 38.91667,
        "pop": 265360
    },
    {
        "name": "Katumba, TZ",
        "lat": -9.23333,
        "lng": 33.61667,
        "pop": 108558
    },
    {
        "name": "Kasulu, TZ",
        "lat": -4.57667,
        "lng": 30.1025,
        "pop": 238321
    },
    {
        "name": "Kahama, TZ",
        "lat": -3.83333,
        "lng": 32.6,
        "pop": 453654
    },
    {
        "name": "Iringa, TZ",
        "lat": -7.76667,
        "lng": 35.7,
        "pop": 202490
    },
    {
        "name": "Ifakara, TZ",
        "lat": -8.13333,
        "lng": 36.68333,
        "pop": 205843
    },
    {
        "name": "Handeni, TZ",
        "lat": -5.43333,
        "lng": 38.01667,
        "pop": 108968
    },
    {
        "name": "Geita, TZ",
        "lat": -2.8725,
        "lng": 32.2325,
        "pop": 318006
    },
    {
        "name": "Dodoma, TZ",
        "lat": -6.17221,
        "lng": 35.73947,
        "pop": 765179
    },
    {
        "name": "Dar es Salaam, TZ",
        "lat": -6.82349,
        "lng": 39.26951,
        "pop": 5383728
    },
    {
        "name": "Bunda, TZ",
        "lat": -2.02153,
        "lng": 33.87109,
        "pop": 182970
    },
    {
        "name": "Bukoba, TZ",
        "lat": -1.33167,
        "lng": 31.81222,
        "pop": 144938
    },
    {
        "name": "Bariadi, TZ",
        "lat": -2.8,
        "lng": 33.98333,
        "pop": 260927
    },
    {
        "name": "Arusha, TZ",
        "lat": -3.36667,
        "lng": 36.68333,
        "pop": 617631
    },
    {
        "name": "Songea, TZ",
        "lat": -10.68333,
        "lng": 35.65,
        "pop": 286285
    },
    {
        "name": "Mtwara, TZ",
        "lat": -10.26667,
        "lng": 40.18333,
        "pop": 140793
    },
    {
        "name": "Njeru, UG",
        "lat": 0.44166,
        "lng": 33.17917,
        "pop": 178800
    },
    {
        "name": "Mukono, UG",
        "lat": 0.35333,
        "lng": 32.75528,
        "pop": 191300
    },
    {
        "name": "Mubende, UG",
        "lat": 0.55849,
        "lng": 31.39489,
        "pop": 121600
    },
    {
        "name": "Mityana, UG",
        "lat": 0.4175,
        "lng": 32.02278,
        "pop": 105200
    },
    {
        "name": "Mbarara, UG",
        "lat": -0.60467,
        "lng": 30.64851,
        "pop": 221300
    },
    {
        "name": "Mbale, UG",
        "lat": 1.08209,
        "lng": 34.17503,
        "pop": 111300
    },
    {
        "name": "Masindi, UG",
        "lat": 1.67444,
        "lng": 31.715,
        "pop": 110500
    },
    {
        "name": "Masaka, UG",
        "lat": -0.33379,
        "lng": 31.73409,
        "pop": 116600
    },
    {
        "name": "Lugazi, UG",
        "lat": 0.36788,
        "lng": 32.9376,
        "pop": 128400
    },
    {
        "name": "Lira, UG",
        "lat": 2.2499,
        "lng": 32.89985,
        "pop": 119323
    },
    {
        "name": "Kira, UG",
        "lat": 0.4,
        "lng": 32.63333,
        "pop": 462900
    },
    {
        "name": "Katabi, UG",
        "lat": 0.08411,
        "lng": 32.46972,
        "pop": 154300
    },
    {
        "name": "Kasese, UG",
        "lat": 0.18333,
        "lng": 30.08333,
        "pop": 115400
    },
    {
        "name": "Kasangati, UG",
        "lat": 0.43803,
        "lng": 32.60246,
        "pop": 207800
    },
    {
        "name": "Kampala, UG",
        "lat": 0.31628,
        "lng": 32.58219,
        "pop": 1680600
    },
    {
        "name": "Kajansi, UG",
        "lat": 0.21548,
        "lng": 32.53453,
        "pop": 135600
    },
    {
        "name": "Ibanda, UG",
        "lat": -0.13398,
        "lng": 30.49616,
        "pop": 117700
    },
    {
        "name": "Hoima, UG",
        "lat": 1.43314,
        "lng": 31.35241,
        "pop": 122700
    },
    {
        "name": "Gulu, UG",
        "lat": 2.77457,
        "lng": 32.29899,
        "pop": 177400
    },
    {
        "name": "Entebbe, UG",
        "lat": 0.05621,
        "lng": 32.47949,
        "pop": 102600
    },
    {
        "name": "Bunamwaya, UG",
        "lat": 0.25344,
        "lng": 32.55723,
        "pop": 413400
    },
    {
        "name": "Kyengera, UG",
        "lat": 0.29517,
        "lng": 32.50159,
        "pop": 285400
    },
    {
        "name": "Nansana, UG",
        "lat": 0.36389,
        "lng": 32.52861,
        "pop": 532800
    },
    {
        "name": "Roodepoort, ZA",
        "lat": -26.1625,
        "lng": 27.8725,
        "pop": 326416
    },
    {
        "name": "Emalahleni, ZA",
        "lat": -25.87133,
        "lng": 29.23323,
        "pop": 373403
    },
    {
        "name": "Westonaria, ZA",
        "lat": -26.31905,
        "lng": 27.6486,
        "pop": 156831
    },
    {
        "name": "Welkom, ZA",
        "lat": -27.97742,
        "lng": 26.73506,
        "pop": 431944
    },
    {
        "name": "Vryheid, ZA",
        "lat": -27.76952,
        "lng": 30.79165,
        "pop": 150012
    },
    {
        "name": "Virginia, ZA",
        "lat": -28.10391,
        "lng": 26.86593,
        "pop": 122502
    },
    {
        "name": "Vereeniging, ZA",
        "lat": -26.67313,
        "lng": 27.92615,
        "pop": 474681
    },
    {
        "name": "Vanderbijlpark, ZA",
        "lat": -26.71171,
        "lng": 27.83795,
        "pop": 246754
    },
    {
        "name": "Mthatha, ZA",
        "lat": -31.58893,
        "lng": 28.78443,
        "pop": 164848
    },
    {
        "name": "Kariega, ZA",
        "lat": -33.75562,
        "lng": 25.40074,
        "pop": 291052
    },
    {
        "name": "Tokoza, ZA",
        "lat": -26.36,
        "lng": 28.129,
        "pop": 106000
    },
    {
        "name": "Thohoyandou, ZA",
        "lat": -22.94564,
        "lng": 30.48497,
        "pop": 107144
    },
    {
        "name": "Thembisa, ZA",
        "lat": -25.99636,
        "lng": 28.2268,
        "pop": 511655
    },
    {
        "name": "KwaDukuza, ZA",
        "lat": -29.32816,
        "lng": 31.28954,
        "pop": 161177
    },
    {
        "name": "Standerton, ZA",
        "lat": -26.93366,
        "lng": 29.24152,
        "pop": 101101
    },
    {
        "name": "Soweto, ZA",
        "lat": -26.26781,
        "lng": 27.85849,
        "pop": 1695047
    },
    {
        "name": "Soshanguve, ZA",
        "lat": -25.47288,
        "lng": 28.09919,
        "pop": 872309
    },
    {
        "name": "Sasolburg, ZA",
        "lat": -26.81358,
        "lng": 27.81695,
        "pop": 135828
    },
    {
        "name": "Rustenburg, ZA",
        "lat": -25.66756,
        "lng": 27.24208,
        "pop": 373695
    },
    {
        "name": "Richards Bay, ZA",
        "lat": -28.78301,
        "lng": 32.03768,
        "pop": 252968
    },
    {
        "name": "Randfontein, ZA",
        "lat": -26.1844,
        "lng": 27.70203,
        "pop": 133654
    },
    {
        "name": "Randburg, ZA",
        "lat": -26.0941,
        "lng": 28.00123,
        "pop": 337053
    },
    {
        "name": "Queenstown, ZA",
        "lat": -31.89756,
        "lng": 26.87533,
        "pop": 118599
    },
    {
        "name": "Pretoria, ZA",
        "lat": -25.74486,
        "lng": 28.18783,
        "pop": 2112693
    },
    {
        "name": "Mokopane, ZA",
        "lat": -24.19436,
        "lng": 29.00974,
        "pop": 101090
    },
    {
        "name": "Potchefstroom, ZA",
        "lat": -26.71667,
        "lng": 27.1,
        "pop": 178285
    },
    {
        "name": "Gqeberha, ZA",
        "lat": -33.96109,
        "lng": 25.61494,
        "pop": 1050078
    },
    {
        "name": "Pinetown, ZA",
        "lat": -29.82068,
        "lng": 30.88674,
        "pop": 144026
    },
    {
        "name": "Polokwane, ZA",
        "lat": -23.90449,
        "lng": 29.46885,
        "pop": 272461
    },
    {
        "name": "Pietermaritzburg, ZA",
        "lat": -29.61679,
        "lng": 30.39278,
        "pop": 839327
    },
    {
        "name": "Phalaborwa, ZA",
        "lat": -23.94299,
        "lng": 31.14107,
        "pop": 109468
    },
    {
        "name": "Orkney, ZA",
        "lat": -26.98023,
        "lng": 26.67272,
        "pop": 110052
    },
    {
        "name": "Nigel, ZA",
        "lat": -26.43138,
        "lng": 28.47713,
        "pop": 140644
    },
    {
        "name": "Newcastle, ZA",
        "lat": -27.75796,
        "lng": 29.9318,
        "pop": 404838
    },
    {
        "name": "Mbombela, ZA",
        "lat": -25.47512,
        "lng": 30.96935,
        "pop": 110159
    },
    {
        "name": "Mpumalanga, ZA",
        "lat": -29.81292,
        "lng": 30.63646,
        "pop": 140121
    },
    {
        "name": "Middelburg, ZA",
        "lat": -25.77507,
        "lng": 29.46482,
        "pop": 196263
    },
    {
        "name": "Mdantsane, ZA",
        "lat": -32.93324,
        "lng": 27.77656,
        "pop": 205504
    },
    {
        "name": "Mabopane, ZA",
        "lat": -25.509,
        "lng": 28.064,
        "pop": 110972
    },
    {
        "name": "Ladysmith, ZA",
        "lat": -28.55874,
        "lng": 29.77896,
        "pop": 143446
    },
    {
        "name": "Krugersdorp, ZA",
        "lat": -26.08577,
        "lng": 27.77515,
        "pop": 378821
    },
    {
        "name": "Kroonstad, ZA",
        "lat": -27.65036,
        "lng": 27.23488,
        "pop": 117152
    },
    {
        "name": "Klerksdorp, ZA",
        "lat": -26.85213,
        "lng": 26.66672,
        "pop": 227039
    },
    {
        "name": "Kimberley, ZA",
        "lat": -28.73226,
        "lng": 24.76232,
        "pop": 142089
    },
    {
        "name": "Johannesburg, ZA",
        "lat": -26.20227,
        "lng": 28.04363,
        "pop": 9418183
    },
    {
        "name": "Hammanskraal, ZA",
        "lat": -25.40892,
        "lng": 28.287,
        "pop": 112950
    },
    {
        "name": "Germiston, ZA",
        "lat": -26.23481,
        "lng": 28.17665,
        "pop": 255863
    },
    {
        "name": "George, ZA",
        "lat": -33.963,
        "lng": 22.46173,
        "pop": 188580
    },
    {
        "name": "Evaton, ZA",
        "lat": -26.53333,
        "lng": 27.85,
        "pop": 725468
    },
    {
        "name": "Ermelo, ZA",
        "lat": -26.53333,
        "lng": 29.98333,
        "pop": 100324
    },
    {
        "name": "eMbalenhle, ZA",
        "lat": -26.53333,
        "lng": 29.06667,
        "pop": 142443
    },
    {
        "name": "East London, ZA",
        "lat": -33.01529,
        "lng": 27.91162,
        "pop": 478676
    },
    {
        "name": "Durban, ZA",
        "lat": -29.8579,
        "lng": 31.0292,
        "pop": 3338026
    },
    {
        "name": "Carletonville, ZA",
        "lat": -26.36094,
        "lng": 27.39767,
        "pop": 182304
    },
    {
        "name": "Brits, ZA",
        "lat": -25.63473,
        "lng": 27.78022,
        "pop": 122497
    },
    {
        "name": "Brakpan, ZA",
        "lat": -26.23656,
        "lng": 28.36938,
        "pop": 305692
    },
    {
        "name": "Botshabelo, ZA",
        "lat": -29.26737,
        "lng": 26.72595,
        "pop": 309714
    },
    {
        "name": "Boksburg, ZA",
        "lat": -26.21197,
        "lng": 28.25958,
        "pop": 445168
    },
    {
        "name": "Bloemfontein, ZA",
        "lat": -29.12107,
        "lng": 26.214,
        "pop": 556637
    },
    {
        "name": "Bhisho, ZA",
        "lat": -32.84721,
        "lng": 27.44218,
        "pop": 137287
    },
    {
        "name": "Benoni, ZA",
        "lat": -26.18848,
        "lng": 28.32078,
        "pop": 605344
    },
    {
        "name": "Alberton, ZA",
        "lat": -26.26786,
        "lng": 28.12225,
        "pop": 121536
    },
    {
        "name": "Somaroboro, ZA",
        "lat": -25.34604,
        "lng": 28.83431,
        "pop": 114369
    },
    {
        "name": "Centurion, ZA",
        "lat": -25.85891,
        "lng": 28.18577,
        "pop": 236580
    },
    {
        "name": "Worcester, ZA",
        "lat": -33.64651,
        "lng": 19.44852,
        "pop": 127597
    },
    {
        "name": "Paarl, ZA",
        "lat": -33.73378,
        "lng": 18.97523,
        "pop": 236910
    },
    {
        "name": "Cape Town, ZA",
        "lat": -33.92584,
        "lng": 18.42322,
        "pop": 4772846
    },
    {
        "name": "Somerset West, ZA",
        "lat": -34.08401,
        "lng": 18.82113,
        "pop": 225289
    },
    {
        "name": "Etwatwa, ZA",
        "lat": -26.12516,
        "lng": 28.45472,
        "pop": 151866
    },
    {
        "name": "Ntuzuma, ZA",
        "lat": -29.739,
        "lng": 30.949,
        "pop": 125394
    },
    {
        "name": "Solwezi, ZM",
        "lat": -12.1688,
        "lng": 26.38938,
        "pop": 301370
    },
    {
        "name": "Ndola, ZM",
        "lat": -12.95867,
        "lng": 28.63659,
        "pop": 627503
    },
    {
        "name": "Mufulira, ZM",
        "lat": -12.54982,
        "lng": 28.24071,
        "pop": 169136
    },
    {
        "name": "Mongu, ZM",
        "lat": -15.24835,
        "lng": 23.12741,
        "pop": 111450
    },
    {
        "name": "Mazabuka, ZM",
        "lat": -15.85601,
        "lng": 27.748,
        "pop": 104412
    },
    {
        "name": "Mansa, ZM",
        "lat": -11.19976,
        "lng": 28.89431,
        "pop": 170965
    },
    {
        "name": "Lusaka, ZM",
        "lat": -15.40669,
        "lng": 28.28713,
        "pop": 2212301
    },
    {
        "name": "Luanshya, ZM",
        "lat": -13.13667,
        "lng": 28.41661,
        "pop": 193293
    },
    {
        "name": "Livingstone, ZM",
        "lat": -17.84194,
        "lng": 25.85425,
        "pop": 178361
    },
    {
        "name": "Kitwe, ZM",
        "lat": -12.80243,
        "lng": 28.21323,
        "pop": 665961
    },
    {
        "name": "Kasama, ZM",
        "lat": -10.21289,
        "lng": 31.18084,
        "pop": 179636
    },
    {
        "name": "Kalulushi, ZM",
        "lat": -12.84151,
        "lng": 28.09479,
        "pop": 104046
    },
    {
        "name": "Kafue, ZM",
        "lat": -15.76911,
        "lng": 28.18136,
        "pop": 104174
    },
    {
        "name": "Kabwe, ZM",
        "lat": -14.4469,
        "lng": 28.44644,
        "pop": 288598
    },
    {
        "name": "Chipata, ZM",
        "lat": -13.63333,
        "lng": 32.65,
        "pop": 327059
    },
    {
        "name": "Chingola, ZM",
        "lat": -12.52897,
        "lng": 27.88382,
        "pop": 256560
    },
    {
        "name": "Chililabombwe, ZM",
        "lat": -12.36475,
        "lng": 27.82286,
        "pop": 113876
    },
    {
        "name": "Chunga, ZM",
        "lat": -15.31737,
        "lng": 28.26868,
        "pop": 115539
    },
    {
        "name": "Mutare, ZW",
        "lat": -18.9707,
        "lng": 32.67086,
        "pop": 224802
    },
    {
        "name": "Kwekwe, ZW",
        "lat": -18.92809,
        "lng": 29.81486,
        "pop": 119863
    },
    {
        "name": "Kadoma, ZW",
        "lat": -18.33328,
        "lng": 29.91534,
        "pop": 117381
    },
    {
        "name": "Harare, ZW",
        "lat": -17.82772,
        "lng": 31.05337,
        "pop": 1542813
    },
    {
        "name": "Gweru, ZW",
        "lat": -19.45,
        "lng": 29.81667,
        "pop": 158200
    },
    {
        "name": "Bulawayo, ZW",
        "lat": -20.15,
        "lng": 28.58333,
        "pop": 665952
    },
    {
        "name": "Chitungwiza, ZW",
        "lat": -18.01274,
        "lng": 31.07555,
        "pop": 371246
    }
]